City_ID,City,Lat,Lng,Max Temp,Humidity,Cloudiness,Wind Speed,Country,Date
0,port macquarie,-31.4333,152.9167,74.89,87,97,8.39,AU,1706545844
1,uturoa,-16.7333,-151.4333,82.78,76,92,3.06,PF,1706545844
2,narasannapeta,18.4167,84.05,69.71,71,41,1.61,IN,1706545845
3,kununurra,-15.7667,128.7333,82.38,83,79,0.0,AU,1706545845
4,new norfolk,-42.7826,147.0587,51.71,97,9,2.98,AU,1706545845
5,rikaze,29.25,88.8833,27.27,20,35,4.5,CN,1706545845
6,klyuchi,52.2667,79.1667,-2.6,98,29,6.11,RU,1706545845
7,georgetown,5.4112,100.3354,84.15,82,20,5.99,MY,1706545846
8,waitangi,-43.9535,-176.5597,60.82,98,85,1.99,NZ,1706545846
9,port lincoln,-34.7333,135.8667,62.74,92,13,10.2,AU,1706545846
10,grytviken,-54.2811,-36.5092,47.59,50,53,11.32,GS,1706545846
11,invercargill,-46.4,168.35,56.01,89,90,4.12,NZ,1706545847
12,port-aux-francais,-49.35,70.2167,39.2,71,81,38.54,TF,1706545847
13,tocopilla,-22.092,-70.1979,75.2,74,12,6.8,CL,1706545847
14,ust'-ordynskiy,52.805,104.7508,-27.67,95,11,6.13,RU,1706545847
15,ribeira grande,38.5167,-28.7,64.8,82,20,17.27,PT,1706545847
16,tiksi,71.6872,128.8694,-10.7,97,98,7.45,RU,1706545848
17,tralee,52.2704,-9.7026,46.65,71,20,8.05,IE,1706545834
18,olonkinbyen,70.9221,-8.7187,22.51,63,100,16.31,SJ,1706545848
19,wailua homesteads,22.0669,-159.378,72.39,90,100,16.11,US,1706545848
20,rio rico,31.4715,-110.9765,64.33,49,0,0.0,US,1706545848
21,ilulissat,69.2167,-51.1,-11.18,64,40,0.0,GL,1706545848
22,jamestown,42.097,-79.2353,35.19,97,100,8.05,US,1706545812
23,st. john's,47.5649,-52.7093,29.28,90,100,8.05,CA,1706545815
24,bethel,41.3712,-73.414,38.57,77,100,16.11,US,1706545655
25,humaita,-7.5061,-63.0208,92.35,54,64,2.51,BR,1706545849
26,tangalle,6.024,80.7911,76.71,88,97,11.34,LK,1706545849
27,arteche,12.2645,125.4048,76.96,84,100,14.0,PH,1706545849
28,puerto natales,-51.7236,-72.4875,64.85,48,75,20.71,CL,1706545849
29,albany,42.6001,-73.9662,34.18,82,100,8.37,US,1706545801
30,ola,59.5833,151.2833,-7.73,83,47,7.2,RU,1706545850
31,kalabo,-14.97,22.6814,82.13,47,28,5.19,ZM,1706545850
32,dunedin,-45.8742,170.5036,58.8,73,47,1.01,NZ,1706545850
33,luganville,-15.5333,167.1667,79.03,83,100,3.78,VU,1706545850
34,manthani,18.65,79.6667,75.04,34,49,3.78,IN,1706545850
35,adamstown,-25.066,-130.1015,75.96,78,100,11.21,PN,1706545850
36,barra,-11.0894,-43.1417,83.21,60,100,4.65,BR,1706545579
37,yuzhno-kurilsk,44.0306,145.8556,27.37,83,22,4.09,RU,1706545851
38,haiku-pauwela,20.9219,-156.3051,75.04,79,100,18.41,US,1706545851
39,ushuaia,-54.8,-68.3,56.82,62,75,24.16,AR,1706545851
40,hawaiian paradise park,19.5933,-154.9731,72.03,89,20,4.61,US,1706545851
41,whitehorse,60.7161,-135.0538,38.17,87,100,17.27,CA,1706545851
42,palikir - national government center,6.9248,158.1611,75.94,100,100,4.61,FM,1706545851
43,hobyo,5.3505,48.5268,79.41,81,29,15.05,SO,1706545852
44,zaraza,9.3503,-65.3245,96.82,28,3,5.73,VE,1706545852
45,bilibino,68.0546,166.4372,-34.64,99,89,1.41,RU,1706545852
46,blackmans bay,-43.0167,147.3167,50.52,78,1,1.99,AU,1706545852
47,kodiak,57.79,-152.4072,9.91,67,0,17.27,US,1706545852
48,barra de santo antonio,-9.4047,-35.5072,90.68,62,2,11.95,BR,1706545852
49,aasiaat,68.7098,-52.8699,-20.13,97,100,4.32,GL,1706545852
50,kapuskasing,49.4169,-82.4331,28.49,86,100,8.05,CA,1706545853
51,chui,-33.6971,-53.4616,78.39,52,59,10.38,UY,1706545853
52,san luis de la loma,17.2706,-100.8939,84.92,50,97,4.21,MX,1706545853
53,byron bay,-28.65,153.6167,77.7,93,100,5.08,AU,1706545853
54,puerto ayora,-0.7393,-90.3518,87.76,79,100,10.6,EC,1706545853
55,iqaluit,63.7506,-68.5145,-25.31,60,100,0.0,CA,1706545853
56,yellowknife,62.456,-114.3525,16.29,92,75,8.05,CA,1706545853
57,port alfred,-33.5906,26.891,82.92,70,76,15.1,ZA,1706545854
58,bredasdorp,-34.5322,20.0403,81.81,28,8,22.46,ZA,1706545854
59,mount isa,-20.7333,139.5,78.57,83,100,0.0,AU,1706545854
60,talnakh,69.4865,88.3972,6.21,92,100,8.84,RU,1706545854
61,kindu,-2.95,25.95,73.33,92,77,2.93,CD,1706545854
62,xuddur,4.1213,43.8894,87.49,31,91,10.31,SO,1706545855
63,urzhar,47.093,81.6294,11.34,84,100,3.65,KZ,1706545855
64,swakopmund,-22.6833,14.5333,68.99,80,59,11.01,NA,1706545855
65,gaiman,-43.2897,-65.4929,83.14,13,0,11.45,AR,1706545855
66,margaret river,-33.95,115.0667,55.38,86,0,9.84,AU,1706545855
67,mwinilunga,-11.7358,24.4293,66.47,94,97,4.09,ZM,1706545855
68,nagqu,31.5,92.0,14.45,94,100,4.45,CN,1706545856
69,vallegrande,-18.4897,-64.1069,71.8,71,77,2.86,BO,1706545856
70,dunda,-8.1167,34.25,67.15,93,100,3.56,TZ,1706545856
71,carnarvon,-24.8667,113.6333,73.49,82,0,21.25,AU,1706545856
72,homosassa springs,28.8036,-82.5759,57.24,67,40,5.75,US,1706545856
73,flekkefjord,58.2971,6.6607,43.95,94,98,4.0,NO,1706545856
74,tataouine,32.9297,10.4518,59.16,51,21,7.83,TN,1706545856
75,enewetak,11.3474,162.3373,78.17,64,28,9.31,MH,1706545857
76,mhangura,-16.8939,30.1683,70.65,78,99,3.0,ZW,1706545857
77,sarupathar,26.1984,93.8094,58.03,62,4,2.42,IN,1706545857
78,usinsk,65.9939,57.5281,10.08,94,94,18.01,RU,1706545857
79,hasaki,35.7333,140.8333,30.6,47,37,2.71,JP,1706545857
80,tolanaro,-25.0319,46.9987,77.07,83,75,13.8,MG,1706545858
81,cobija,-11.0267,-68.7692,87.98,74,40,5.75,BO,1706545858
82,tiruchchendur,8.4833,78.1167,79.56,78,4,18.23,IN,1706545858
83,edinburgh of the seven seas,-37.0676,-12.3116,63.73,89,59,22.77,SH,1706545858
84,udachny,66.4167,112.4,-8.55,83,99,2.55,RU,1706545858
85,dalbandin,28.8947,64.4101,65.35,48,100,5.21,PK,1706545858
86,homer,59.6425,-151.5483,13.87,80,100,0.0,US,1706545859
87,papatowai,-46.5619,169.4708,54.54,79,93,6.44,NZ,1706545859
88,olyokminsk,60.3736,120.4264,-24.47,98,100,1.39,RU,1706545859
89,ad dabbah,18.05,30.95,67.64,18,45,10.83,SD,1706545859
90,tofol,5.3248,163.0078,81.7,68,100,11.39,FM,1706545859
91,vorgashor,67.5833,63.95,2.55,95,79,9.53,RU,1706545859
92,hermanus,-34.4187,19.2345,79.81,52,71,26.55,ZA,1706545860
93,zaozersk,69.4005,32.4476,33.24,67,72,39.46,RU,1706545860
94,gunjur,13.2019,-16.7339,95.07,12,63,5.75,GM,1706545860
95,queenstown,-31.8976,26.8753,83.89,35,99,10.89,ZA,1706545860
96,lebu,-37.6167,-73.65,65.14,60,61,12.03,CL,1706545860
97,lihue,21.9789,-159.3672,72.99,89,100,16.11,US,1706545860
98,alenquer,-1.9417,-54.7383,87.49,55,52,1.99,BR,1706545861
99,saipan,15.1355,145.701,75.9,73,40,13.8,MP,1706545861
100,qingzhou,36.6967,118.4797,33.22,64,15,7.05,CN,1706545861
101,kyren,51.6828,102.1408,-7.06,93,60,1.01,RU,1706545861
102,ts'khinvali,42.2276,43.9686,25.02,79,30,6.55,GE,1706545861
103,bikenibeu village,1.3673,173.1241,80.56,83,75,5.75,KI,1706545861
104,anadyr,64.75,177.4833,-30.5,66,20,11.18,RU,1706545862
105,albacete,38.8333,-2.0,52.18,71,0,6.91,ES,1706545862
106,livingston,55.9029,-3.5226,42.48,89,75,5.75,GB,1706545853
107,weno,7.4515,151.8468,78.75,94,100,4.61,FM,1706545862
108,zholymbet,51.7433,71.7122,-5.01,100,27,6.44,KZ,1706545862
109,tabatinga,-4.2525,-69.9381,84.29,83,75,3.44,BR,1706545862
110,alice springs,-23.7,133.8833,83.21,13,77,1.99,AU,1706545863
111,west island,-12.1568,96.8225,78.78,73,16,5.75,CC,1706545863
112,ongjin,37.9347,125.3619,31.46,79,41,2.73,KP,1706545863
113,port elizabeth,-33.918,25.5701,80.1,73,0,3.44,ZA,1706545863
114,port mathurin,-19.6833,63.4167,82.26,81,88,19.98,MU,1706545864
115,mirnyy,62.5353,113.9611,-37.14,100,48,3.49,RU,1706545864
116,kirensk,57.7853,108.1119,-38.04,100,69,1.01,RU,1706545864
117,college,64.8569,-147.8028,-10.8,58,100,0.0,US,1706545826
118,akdepe,42.0551,59.3788,33.89,79,100,11.52,TM,1706545864
119,peoria heights,40.7473,-89.574,32.95,99,100,10.36,US,1706545865
120,kasba tadla,32.5977,-6.2684,73.51,24,98,5.84,MA,1706545694
121,sur,22.5667,59.5289,75.42,72,76,0.76,OM,1706545865
122,souillac,-20.5167,57.5167,80.98,94,75,8.05,MU,1706545865
123,piti village,13.4626,144.6933,78.85,84,20,6.91,GU,1706545865
124,mola di bari,41.0609,17.0873,52.12,57,2,8.37,IT,1706545866
125,kashgar,39.4547,75.9797,27.61,63,20,4.47,CN,1706545866
126,yemetsk,63.4721,41.7941,34.16,91,100,10.69,RU,1706545866
127,jimma,7.6667,36.8333,65.26,79,79,1.88,ET,1706545866
128,margate,51.3813,1.3862,48.87,91,95,8.01,GB,1706545481
129,tondano,1.3038,124.9112,71.69,95,62,2.82,ID,1706545866
130,besni,37.6928,37.8611,34.43,68,100,4.29,TR,1706545866
131,coyhaique,-45.5752,-72.0662,66.15,45,20,6.91,CL,1706545867
132,berezovyy,51.6667,135.7,-0.69,99,100,2.39,RU,1706545867
133,praia da vitoria,38.7333,-27.0667,63.75,88,40,18.05,PT,1706545867
134,annau,37.8876,58.516,42.3,87,75,6.91,TM,1706545867
135,itoman,26.1247,127.6694,64.09,63,92,5.75,JP,1706545867
136,tura,25.5198,90.2201,56.77,55,0,3.09,IN,1706545867
137,avarua,-21.2078,-159.775,80.65,94,75,4.61,CK,1706545868
138,thompson,55.7435,-97.8558,23.16,93,100,8.05,CA,1706545868
139,llanes,43.4198,-4.7549,60.53,63,100,3.15,ES,1706545868
140,stryszawa,49.7133,19.5219,38.07,86,9,4.54,PL,1706545868
141,birdsboro,40.2645,-75.8041,40.6,73,100,19.57,US,1706545868
142,holualoa,19.6228,-155.9522,67.84,88,0,10.36,US,1706545869
143,howrah,22.5892,88.3103,66.2,68,20,3.44,IN,1706545869
144,ust-nera,64.5667,143.2,-39.03,98,78,4.05,RU,1706545869
145,hailey,43.5196,-114.3153,31.86,86,0,6.91,US,1706545869
146,hammerfest,70.6634,23.6821,36.05,75,75,69.05,NO,1706545869
147,nyaunglebin,17.95,96.7333,72.72,76,19,5.23,MM,1706545870
148,kholmsk,47.0511,142.0569,25.14,88,100,11.23,RU,1706545870
149,smithville,39.3869,-94.5811,48.92,67,0,10.36,US,1706545800
150,carutapera,-1.195,-46.02,88.05,56,73,10.31,BR,1706545870
151,norderney,53.7,7.15,46.42,94,100,11.03,DE,1706545871
152,coquimbo,-29.9533,-71.3436,64.13,94,100,8.05,CL,1706545871
153,port blair,11.6667,92.75,73.44,94,75,3.44,IN,1706545819
154,bubaque,11.2833,-15.8333,80.76,50,85,10.83,GW,1706545871
155,dowlatabad,32.7998,51.6955,40.68,45,0,4.61,IR,1706545871
156,prado,-17.3411,-39.2208,83.95,71,100,9.13,BR,1706545871
157,morbi,22.8167,70.8333,70.65,72,2,5.93,IN,1706545872
158,sola,-13.8833,167.55,80.98,77,95,8.95,VU,1706545872
159,qinzhou,21.95,108.6167,53.11,92,100,4.9,CN,1706545872
160,pudozh,61.8099,36.5345,29.95,95,94,10.0,RU,1706545872
161,rupert,42.6191,-113.6772,35.55,87,0,9.22,US,1706545873
162,ozark,37.0209,-93.206,50.29,80,0,1.01,US,1706545873
163,mikun',62.3547,50.0771,20.89,95,100,8.52,RU,1706545873
164,bel air riviere seche,-20.2542,57.7453,81.68,87,6,6.42,MU,1706545873
165,gondia,21.45,80.2,66.96,33,78,3.44,IN,1706545873
166,giddings,30.1827,-96.9364,59.52,51,0,0.0,US,1706545873
167,port saint john's,-31.6229,29.5448,80.13,83,23,18.37,ZA,1706545873
168,novyy urgal,51.0736,132.5642,-6.32,98,100,3.87,RU,1706545874
169,tulay na lupa,14.0934,122.7862,70.95,85,85,9.15,PH,1706545874
170,fale old settlement,-9.3852,-171.2468,84.04,72,97,4.56,TK,1706545874
171,constantia,44.1833,28.65,34.7,74,99,19.57,RO,1706545874
172,dudinka,69.4058,86.1778,6.62,83,100,18.01,RU,1706545874
173,kayangel,8.0823,134.7173,80.89,85,100,23.67,PW,1706545874
174,imperatriz,-5.5264,-47.4917,87.85,70,40,8.05,BR,1706545875
175,kalmunai,7.4167,81.8167,77.68,87,65,8.9,LK,1706545875
176,utrik,11.2278,169.8474,78.85,69,62,12.21,MH,1706545875
177,iskateley,67.6803,53.1512,17.02,92,100,18.99,RU,1706545875
178,saldanha,-33.0117,17.9442,73.45,79,46,18.7,ZA,1706545875
179,longyearbyen,78.2186,15.6401,26.44,86,100,27.63,SJ,1706545875
180,akureyri,65.6835,-18.0878,28.33,93,100,4.61,IS,1706545876
181,zeya,53.75,127.2667,-10.52,96,96,2.08,RU,1706545876
182,khash,28.2211,61.2158,53.82,39,100,5.26,IR,1706545876
183,qaqortoq,60.7167,-46.0333,-5.51,76,56,5.14,GL,1706545876
184,malango,-2.9627,119.9001,68.9,97,100,1.79,ID,1706545876
185,nar'yan-mar,67.6713,53.087,17.11,92,100,18.99,RU,1706545877
186,la foa,-21.7108,165.8276,77.41,76,86,1.83,NC,1706545877
187,bikin,46.8161,134.26,-9.26,100,80,1.1,RU,1706545877
188,neryungri,56.6709,124.6491,-23.4,98,100,4.16,RU,1706545878
189,stanley,54.868,-1.6985,42.39,93,100,14.09,GB,1706545879
190,lompoc,34.6391,-120.4579,65.59,71,0,12.66,US,1706545681
191,hithadhoo,-0.6,73.0833,82.29,72,37,7.23,MV,1706545879
192,cromer,52.9312,1.2989,51.08,94,98,12.33,GB,1706545640
193,vanimo,-2.6741,141.3028,78.24,87,100,1.81,PG,1706545879
194,hailar,49.2,119.7,-39.12,100,46,3.6,CN,1706545880
195,fangshan,39.6983,115.9925,28.26,80,51,3.56,CN,1706545880
196,kegeyli shahar,42.7767,59.6078,30.29,98,100,8.75,UZ,1706545881
197,cahors,44.4167,1.3333,51.39,82,100,11.7,FR,1706545881
198,petropavlovsk-kamchatsky,53.0452,158.6483,4.46,93,0,8.95,RU,1706545881
199,puerto aysen,-45.4,-72.7,64.56,62,44,4.27,CL,1706545670
200,graaff-reinet,-32.2522,24.5308,101.91,13,93,14.97,ZA,1706545881
201,tarauaca,-8.1614,-70.7656,81.72,85,99,2.64,BR,1706545882
202,mount pearl,47.5166,-52.7813,28.45,90,100,8.05,CA,1706545882
203,vadso,70.0744,29.7487,38.28,70,70,44.87,NO,1706545883
204,bochum,51.4833,7.2167,53.1,59,100,4.54,DE,1706545883
205,keflavik,64.0049,-22.5624,34.23,80,75,42.57,IS,1706545883
206,susuman,62.7833,148.1667,-36.02,97,100,1.01,RU,1706545884
207,freetown,8.484,-13.2299,87.51,70,74,6.91,SL,1706545884
208,papao,-17.75,-149.55,80.28,76,100,2.55,PF,1706545884
209,pong,19.1493,100.2752,65.23,97,34,3.13,TH,1706545884
210,viedma,-40.8135,-62.9967,89.87,32,0,16.96,AR,1706545884
211,san sebastian de la gomera,28.0916,-17.1133,78.17,23,0,4.61,ES,1706545884
212,ocean shores,46.9737,-124.1563,54.32,96,40,8.05,US,1706545885
213,nadvoitsy,63.8667,34.3167,34.79,86,100,15.1,RU,1706545885
214,touros,-5.1989,-35.4608,87.26,63,64,14.2,BR,1706545885
215,hafar al-batin,28.4328,45.9708,63.18,36,0,13.8,SA,1706545885
216,yershov,51.3513,48.2766,7.48,100,62,4.36,RU,1706545886
217,crane,31.3974,-102.3501,56.17,42,41,10.65,US,1706545887
218,codrington,-38.2667,141.9667,54.18,89,0,6.98,AU,1706545887
219,hilo,19.7297,-155.09,76.28,72,20,4.61,US,1706545887
220,nkhata bay,-11.6066,34.2907,76.96,78,55,1.39,MW,1706545888
221,mahdia,35.5047,11.0622,60.75,64,12,7.31,TN,1706545865
222,portland,45.5234,-122.6762,53.82,90,75,8.01,US,1706545888
223,qiziltepa,40.0331,64.85,38.35,72,100,9.44,UZ,1706545889
224,gateway,26.5776,-81.7504,62.98,66,20,12.66,US,1706545889
225,pisco,-13.7,-76.2167,80.65,69,0,11.5,PE,1706545889
226,ghat,24.9647,10.1728,63.28,35,12,9.57,LY,1706545889
227,hadibu,12.65,54.0333,76.12,67,52,8.08,YE,1706545890
228,isafjordur,66.0755,-23.124,28.44,93,100,3.44,IS,1706545890
229,atar,20.5169,-13.0499,83.39,7,0,13.91,MR,1706545890
230,ludwin,51.3461,22.9058,36.43,93,0,3.44,PL,1706545891
231,colonia,50.9333,6.95,54.43,65,0,8.05,DE,1706545723
232,happy valley-goose bay,53.3168,-60.3315,-7.29,41,0,9.22,CA,1706545891
233,juneau,58.3019,-134.4197,46.42,95,100,25.32,US,1706545891
234,gamba,-2.65,10.0,81.07,82,69,6.22,GA,1706545892
235,la passe,45.5549,-0.8967,59.23,83,100,11.68,FR,1706545892
236,sisimiut,66.9395,-53.6735,-10.88,94,99,7.25,GL,1706545875
237,bengkulu,-3.8004,102.2655,76.89,91,89,5.21,ID,1706545892
238,broome,42.2506,-75.833,33.62,90,100,12.66,US,1706545892
239,jiangyou,31.7667,104.7167,43.07,65,94,3.02,CN,1706545893
240,fort bragg,35.139,-79.006,53.91,48,0,13.8,US,1706545795
241,rouissat,31.9243,5.3502,66.27,48,0,9.22,DZ,1706545893
242,kovernino,57.1253,43.8142,25.66,94,100,12.08,RU,1706545893
243,fisterra,42.9049,-9.2629,61.75,85,97,11.48,ES,1706545894
244,porto novo,6.4965,2.6036,87.62,44,7,9.53,BJ,1706545894
245,palangkaraya,-2.2,113.8333,75.52,96,100,1.63,ID,1706545894
246,stroitel',50.7854,36.4831,28.22,74,75,11.18,RU,1706545894
247,karoi,-16.8099,29.6925,69.84,80,95,3.71,ZW,1706545895
248,nadym,65.5333,72.5167,-5.55,94,46,10.25,RU,1706545895
249,sastre,-31.7676,-61.8289,95.25,20,23,6.04,AR,1706545895
250,sinan,34.8262,126.1086,28.51,66,19,9.42,KR,1706545895
251,saint-francois,46.4154,3.9054,58.44,63,0,3.44,FR,1706545895
252,zheleznodorozhnyy,55.7503,38.0042,26.37,95,100,8.01,RU,1706545895
253,cabedelo,-6.9811,-34.8339,90.27,66,14,13.94,BR,1706545733
254,inhambane,-23.865,35.3833,77.41,78,1,9.71,MZ,1706545896
255,walvis bay,-22.9575,14.5053,69.1,65,59,23.0,NA,1706545896
256,ancud,-41.8697,-73.8203,62.4,56,61,5.08,CL,1706545896
257,niafunke,15.9322,-3.9906,86.94,8,0,8.55,ML,1706545896
258,zahedan,29.4963,60.8629,55.31,41,0,6.91,IR,1706545634
259,nova sintra,14.8667,-24.7167,71.56,62,31,15.68,CV,1706545896
260,taroa,8.7058,171.2275,79.92,83,100,17.78,MH,1706545897
261,gadzhiyevo,69.2551,33.3362,34.27,67,90,37.89,RU,1706545897
262,okhotsk,59.3833,143.3,-14.26,80,7,8.3,RU,1706545897
263,kulhudhuffushi,6.6221,73.07,81.5,68,6,9.71,MV,1706545897
264,kalat,29.0225,66.5916,48.96,70,100,7.99,PK,1706545897
265,griffith,41.5284,-87.4237,33.12,100,100,8.05,US,1706545897
266,icheon-si,37.2792,127.4425,24.22,86,0,0.0,KR,1706545898
267,santa maria,-29.6842,-53.8069,79.9,61,75,3.44,BR,1706545898
268,baoding,38.8511,115.4903,28.22,87,10,6.4,CN,1706545898
269,togur,58.3631,82.8265,7.14,91,91,7.0,RU,1706545898
270,vila franca do campo,37.7167,-25.4333,64.89,99,100,22.86,PT,1706545898
271,sos'va,59.1766,61.8558,-2.94,100,86,3.0,RU,1706545898
272,altayskoye,51.9533,85.3325,5.76,100,98,1.77,RU,1706545899
273,jamkhandi,16.5167,75.3,75.43,36,71,7.58,IN,1706545899
274,saint-arnoult-en-yvelines,48.5667,1.9333,56.17,87,100,7.02,FR,1706545899
275,pangai,-19.8,-174.35,81.19,76,100,11.59,TO,1706545899
276,sao jose da coroa grande,-8.8978,-35.1478,85.84,62,6,12.55,BR,1706545899
277,chambas,22.1928,-78.9136,73.18,61,92,17.13,CU,1706545899
278,saint-philippe,-21.3585,55.7679,78.39,88,60,10.56,RE,1706545900
279,narasapur,16.45,81.6667,68.13,81,76,6.11,IN,1706545900
280,hamilton,39.1834,-84.5333,35.94,88,100,8.05,US,1706545677
281,znamenskoye,57.1281,73.8282,9.48,97,100,2.77,RU,1706545900
282,san juan de miraflores,-12.1629,-76.9635,79.32,72,71,9.95,PE,1706545657
283,palmer,42.1584,-72.3287,36.01,79,100,14.97,US,1706545900
284,wamba,8.9333,8.6,91.98,13,22,6.76,NG,1706545900
285,vilyuchinsk,52.9306,158.4028,5.94,88,80,7.76,RU,1706545901
286,labuan,5.2767,115.2417,80.96,83,20,9.22,MY,1706545901
287,birine,35.635,3.225,57.27,51,73,6.64,DZ,1706545901
288,punta arenas,-53.15,-70.9167,60.82,55,40,16.11,CL,1706545901
289,arteaga,18.4667,-102.4167,74.34,38,100,1.43,MX,1706545901
290,mahina,-17.5065,-149.489,80.37,78,75,2.3,PF,1706545901
291,nouadhibou,20.931,-17.0347,85.98,10,0,5.75,MR,1706545902
292,maloye ganyushkino,46.6,49.2667,22.69,79,100,8.41,KZ,1706545902
293,motygino,58.1831,94.7592,-13.22,94,5,5.99,RU,1706545902
294,cockburn town,21.4612,-71.1419,77.77,76,0,12.71,TC,1706545902
295,ostroda,53.6967,19.9649,36.7,72,100,10.22,PL,1706545902
296,howard springs,-12.497,131.047,80.51,95,100,5.19,AU,1706545902
297,pionerskiy,54.9508,20.2275,39.04,71,97,17.96,RU,1706545903
298,afaahiti,-17.75,-149.2833,78.67,79,100,5.19,PF,1706545903
299,chone,-0.6833,-80.1,83.12,81,100,3.38,EC,1706545903
300,severo-yeniseyskiy,60.3725,93.0408,-21.42,98,30,4.0,RU,1706545903
301,guerrero negro,27.9769,-114.0611,66.34,45,35,2.21,MX,1706545649
302,sitka,57.0531,-135.33,48.09,81,100,16.11,US,1706545903
303,otjiwarongo,-20.4637,16.6477,75.29,54,75,16.17,NA,1706545756
304,jacmel,18.2342,-72.5347,85.84,56,1,7.2,HT,1706545904
305,winnemucca,40.973,-117.7357,39.25,87,0,12.66,US,1706545687
306,barra do bugres,-15.0725,-57.1811,98.69,35,76,3.13,BR,1706545904
307,pacific grove,36.6177,-121.9166,58.5,78,0,3.0,US,1706545711
308,jiagedaqi,50.4167,124.1167,-22.18,96,36,3.27,CN,1706545904
309,vicuna mackenna,-33.9197,-64.3922,101.52,18,4,1.59,AR,1706545904
310,pachino,36.7186,15.0907,53.56,64,99,5.61,IT,1706545904
311,bandar-e lengeh,26.5579,54.8807,71.71,40,0,6.91,IR,1706545905
312,antofagasta,-23.65,-70.4,74.48,66,11,8.99,CL,1706545847
313,muisne,0.6,-80.0333,82.42,79,82,7.14,EC,1706545905
314,pokhara,28.2333,83.9833,50.43,41,7,5.91,NP,1706545905
315,kidal,18.4411,1.4078,79.92,10,48,9.69,ML,1706545905
316,bijar,35.8668,47.6051,26.35,59,17,1.03,IR,1706545905
317,yeppoon,-23.1333,150.7333,82.18,90,100,5.48,AU,1706545905
318,alaghsas,17.0187,8.0168,80.49,12,57,23.02,NE,1706545906
319,el grao,39.798,-0.1321,60.13,85,97,4.38,ES,1706545906
320,labytnangi,66.6572,66.4183,-15.39,100,89,3.18,RU,1706545906
321,mbake,14.7903,-15.908,76.78,6,75,12.48,SN,1706545906
322,mahenge,-8.6833,36.7167,66.47,97,100,2.53,TZ,1706545906
323,kudahuvadhoo,2.6708,72.8944,81.59,80,20,15.77,MV,1706545907
324,galveston,29.3669,-94.9669,61.0,63,0,3.44,US,1706545907
325,al jawf,29.5,38.75,54.55,43,1,7.4,SA,1706545907
326,glace bay,46.1969,-59.957,30.97,95,100,21.85,CA,1706545907
327,ivdel',60.6911,60.4206,2.19,99,56,1.99,RU,1706545907
328,port lavaca,28.615,-96.6261,62.31,76,0,0.0,US,1706545681
329,chernolesskoye,44.7156,43.7133,25.56,93,100,2.82,RU,1706545908
330,badger,64.8,-147.5333,-10.88,64,100,0.0,US,1706545908
331,benguela,-12.5763,13.4055,82.4,71,6,8.14,AO,1706545908
332,gambela,8.25,34.5833,86.45,37,96,3.58,ET,1706545908
333,naberera,-4.2,36.9333,67.75,80,84,7.2,TZ,1706545908
334,sydney mines,46.2367,-60.2177,31.8,95,100,21.85,CA,1706545909
335,naze,28.3667,129.4833,58.12,62,54,5.84,JP,1706545909
336,ar rahad,12.7167,30.65,74.75,15,30,10.47,SD,1706545909
337,devonport,-41.1667,146.35,50.52,83,27,7.27,AU,1706545868
338,comodoro rivadavia,-45.8667,-67.5,75.06,25,0,12.66,AR,1706545909
339,altai,46.3722,96.2583,-2.43,60,0,2.57,MN,1706545909
340,rodolfo sanchez taboada,31.7167,-116.5667,60.1,51,47,5.01,MX,1706545909
341,nemuro,43.3236,145.575,29.88,84,16,5.7,JP,1706545910
342,stony plain,53.5334,-114.0021,38.52,80,40,4.61,CA,1706545910
343,katsuren-haebaru,26.3369,127.8719,64.09,60,100,4.61,JP,1706545910
344,glendive,47.1053,-104.7125,42.42,81,0,4.61,US,1706545910
345,kendallville,41.4414,-85.265,33.08,94,100,8.05,US,1706545910
346,popondetta,-8.7537,148.2534,76.17,97,100,2.1,PG,1706545910
347,robore,-18.3333,-59.75,91.49,58,20,11.5,BO,1706545910
348,yeed,4.55,43.0333,91.36,26,67,9.48,SO,1706545910
349,forster,-32.1667,152.5167,75.29,93,20,9.55,AU,1706545911
350,atafu village,-8.5421,-172.5159,83.14,74,99,3.89,TK,1706545911
351,kenora,49.8167,-94.4337,27.57,93,100,5.75,CA,1706545879
352,pindiga,9.9833,10.9333,87.1,15,0,7.65,NG,1706545911
353,pekanbaru,0.5333,101.45,79.12,89,20,0.0,ID,1706545911
354,mirny,62.5353,113.9611,-37.14,100,48,3.49,RU,1706545911
355,fort saskatchewan,53.7168,-113.2187,39.78,74,100,9.22,CA,1706545835
356,nahrin,36.0649,69.1334,39.97,94,99,1.45,AF,1706545911
357,luderitz,-26.6481,15.1594,70.65,63,59,11.77,NA,1706545912
358,fort st. john,56.2499,-120.8529,37.29,70,75,10.36,CA,1706545388
359,hovd,48.0056,91.6419,-6.41,92,9,1.05,MN,1706545912
360,smirnovo,54.5125,69.4222,3.74,98,91,6.91,KZ,1706545912
361,san antonio de pale,-1.4014,5.6325,82.76,78,61,10.98,GQ,1706545912
362,roma,43.2128,-75.4557,33.12,88,100,10.36,US,1706545912
363,sao gotardo,-19.3111,-46.0489,83.62,39,7,8.16,BR,1706545912
364,al qitena,14.8648,32.3668,75.29,15,34,11.12,SD,1706545913
365,manokwari,-0.8667,134.0833,78.94,81,96,2.86,ID,1706545913
366,las palmas,28.4204,-14.0131,68.79,64,0,4.61,ES,1706545870
367,taoudenni,22.6783,-3.9836,82.8,7,0,8.93,ML,1706545913
368,istgah-e rah ahan-e garmsar,35.2346,52.3094,46.71,37,80,2.86,IR,1706545913
369,bakchar,57.0186,82.0711,-5.01,100,95,3.96,RU,1706545914
370,garbahaarrey,3.3289,42.2209,93.38,27,100,12.37,SO,1706545914
371,pathein,16.7833,94.7333,70.23,60,40,4.85,MM,1706545914
372,emet,39.343,29.2585,26.78,85,44,7.96,TR,1706545884
373,scarborough,54.2797,-0.4044,46.65,94,100,8.97,GB,1706545898
374,bhuj,23.2667,69.6667,68.4,80,12,7.36,IN,1706545806
375,ghanzi,-21.5667,21.7833,80.42,50,96,7.67,BW,1706545915
376,langarud,37.197,50.1535,48.25,88,86,3.98,IR,1706545916
377,khandyga,62.6667,135.6,-53.3,100,81,2.1,RU,1706545916
378,kargopol',61.5071,38.9456,33.96,83,100,13.31,RU,1706545917
379,syktyvkar,61.6764,50.8099,22.91,100,100,13.42,RU,1706545917
380,belomorsk,64.5232,34.7668,36.37,84,100,16.33,RU,1706545917
381,rosarito,32.3333,-117.0333,69.24,39,35,2.73,MX,1706545918
382,laguna,38.421,-121.4238,61.09,96,0,3.44,US,1706545918
383,isoka,-10.1606,32.6335,66.43,93,100,0.45,ZM,1706545918
384,anchau,10.9597,8.3916,81.54,14,24,8.48,NG,1706545919
385,sodra sandby,56.5667,16.6167,38.89,84,100,11.41,SE,1706545920
386,mbanza-ngungu,-5.25,14.8667,74.08,88,99,5.73,CD,1706545920
387,rumoi,43.9344,141.6428,31.89,82,98,9.28,JP,1706545921
388,neiafu,-18.65,-173.9833,77.68,94,75,0.0,TO,1706545921
389,richards bay,-28.783,32.0377,77.58,73,6,13.94,ZA,1706545921
390,bukene,-4.2333,32.8833,66.67,91,94,3.94,TZ,1706545922
391,flying fish cove,-10.4217,105.6791,74.88,94,75,5.75,CX,1706545922
392,kavaratti,10.5669,72.642,82.04,65,28,6.51,IN,1706545922
393,prince rupert,54.3161,-130.3201,51.49,81,100,52.93,CA,1706545923
394,mukalla,14.5425,49.1242,76.91,81,52,1.99,YE,1706545923
395,selfoss,63.9331,-20.9971,35.04,95,100,25.01,IS,1706545924
396,bardai,11.65,7.2333,81.68,11,4,10.58,NG,1706545924
397,mont-tremblant,46.1949,-74.6264,26.19,74,43,2.3,CA,1706545800
398,kuanda,56.3161,116.0806,-32.94,96,57,0.87,RU,1706545925
399,guilin,25.2819,110.2864,44.71,96,99,0.83,CN,1706545925
400,brynamman,51.8,-3.8667,52.61,87,100,9.57,GB,1706545925
401,ulsteinvik,62.3432,5.8487,44.31,78,25,14.0,NO,1706545926
402,mumford,5.2618,-0.759,82.72,68,53,11.32,GH,1706545926
403,ataq,14.5377,46.8319,68.5,77,83,12.91,YE,1706545927
404,swift current,50.2834,-107.8014,34.61,93,0,12.66,CA,1706545769
405,lapua,62.9693,23.0088,36.28,77,89,10.16,FI,1706545928
406,hechuan,29.9947,106.2572,48.69,65,100,3.36,CN,1706545928
407,namibe,-15.1961,12.1522,76.87,68,0,11.95,AO,1706545928
408,novyy urengoy,66.0833,76.6333,-7.1,89,88,9.42,RU,1706545928
409,gadhada,21.9667,71.5667,73.2,51,4,6.22,IN,1706545929
410,trincomalee,8.5711,81.2335,79.79,79,49,13.11,LK,1706545929
411,borkum,53.5809,6.6915,47.93,93,100,11.18,DE,1706545929
412,mount gambier,-37.8333,140.7667,52.72,93,5,5.3,AU,1706545930
413,concepcion,-36.827,-73.0498,75.0,50,0,8.05,CL,1706545930
414,tazacorte,28.629,-17.9293,70.77,64,12,4.61,ES,1706545930
415,lemvig,56.5486,8.3102,43.2,95,100,5.84,DK,1706545697
416,salalah,17.0151,54.0924,78.89,65,20,4.61,OM,1706545931
417,rio grande,-32.035,-52.0986,78.91,69,72,11.48,BR,1706545682
418,argo,37.6333,22.7333,40.46,82,43,6.46,GR,1706545931
419,luanda,-8.8368,13.2343,87.8,78,40,11.5,AO,1706545931
420,omamacho-omama,36.4333,139.2833,35.46,58,8,3.2,JP,1706545931
421,bandon,51.7469,-8.7425,44.19,86,100,13.13,IE,1706545931
422,beyneu,45.3167,55.2,24.15,77,100,6.96,KZ,1706545932
423,belmonte,-15.8631,-38.8828,84.0,71,100,9.69,BR,1706545932
424,tateyama,34.9833,139.8667,50.4,53,52,4.23,JP,1706545932
425,aoji,42.5206,130.3953,19.89,69,6,0.94,KP,1706545932
426,gisborne,-38.6533,178.0042,65.32,93,100,8.66,NZ,1706545932
427,beira,-19.8436,34.8389,84.29,65,20,11.5,MZ,1706545932
428,adrar,20.5022,-10.0711,79.47,8,0,13.89,MR,1706545933
429,salanso,12.1833,-4.0833,91.98,8,12,5.44,BF,1706545933
430,zhezqazghan,47.7833,67.7667,4.86,88,94,9.71,KZ,1706545933
431,eyl,7.9803,49.8164,77.94,83,54,14.88,SO,1706545933
432,talavera,15.6167,120.9333,68.2,81,44,5.17,PH,1706545933
433,choctaw,35.4976,-97.2689,58.1,54,0,4.0,US,1706545809
434,kruisfontein,-34.0033,24.7314,77.88,66,99,10.07,ZA,1706545934
435,kerema,-7.9631,145.7785,80.06,81,58,2.98,PG,1706545934
436,pimentel,-6.8367,-79.9342,86.29,58,20,16.11,PE,1706545934
437,nova olimpia,-14.7972,-57.2881,99.14,35,50,2.26,BR,1706545934
438,shache,38.4167,77.2406,28.17,49,76,4.29,CN,1706545934
439,tanout,14.9709,8.8879,75.92,11,30,13.65,NE,1706545935
440,magistral'nyy,56.1725,107.4458,-37.62,100,70,1.88,RU,1706545935
441,kizel,59.0471,57.6477,7.03,98,99,3.67,RU,1706545935
442,banjarmasin,-3.3244,114.591,80.74,89,91,2.68,ID,1706545725
443,mendi,-6.1761,143.6513,57.16,98,100,2.89,PG,1706545935
444,hirara,24.8,125.2833,67.86,77,71,14.97,JP,1706545935
445,acarau,-2.8856,-40.12,89.19,59,90,18.92,BR,1706545936
446,matoury,4.8483,-52.3317,78.76,94,75,5.75,GF,1706545936
447,blenheim,-41.516,173.9528,51.53,90,2,4.25,NZ,1706545744
448,chonchi,-42.6128,-73.8092,67.21,43,34,2.73,CL,1706545936
449,kailua-kona,19.6406,-155.9956,71.56,89,0,10.36,US,1706545936
450,tsetserleg,47.475,101.4542,-8.73,94,93,2.51,MN,1706545936
451,meihekou,42.5272,125.6753,-2.63,100,28,2.19,CN,1706545936
452,solnechnyy,50.7214,136.6319,-6.97,97,100,2.71,RU,1706545937
453,heyuan,23.7333,114.6833,55.38,95,100,2.89,CN,1706545937
454,sumbe,-11.2061,13.8437,82.45,74,39,7.34,AO,1706545937
455,tazovsky,67.4667,78.7,-3.78,86,96,10.36,RU,1706545937
456,inirida,3.8653,-67.9239,97.2,37,64,3.11,CO,1706545937
457,kristiansund,63.1115,7.732,43.45,61,40,23.02,NO,1706545937
458,amga,60.8953,131.9608,-45.06,100,100,1.79,RU,1706545938
459,egilsstadir,65.2653,-14.3948,35.51,75,75,11.5,IS,1706545938
460,kerikeri,-35.2268,173.9474,63.91,89,3,1.01,NZ,1706545938
461,temerluh,3.4506,102.4176,75.97,99,61,1.05,MY,1706545938
462,itapirapua,-15.8233,-50.6133,88.12,53,55,5.57,BR,1706545938
463,polyarnyy,69.1989,33.4478,34.84,67,92,36.53,RU,1706545931
464,loango,-4.6719,11.8312,83.86,84,20,10.36,CG,1706545939
465,taulaga,-11.0553,-171.0883,84.83,68,100,5.1,AS,1706545939
466,grivita,44.7333,27.2833,34.45,73,100,11.83,RO,1706545939
467,fada,9.5667,8.3,87.67,16,23,0.85,NG,1706545939
468,puerto baquerizo moreno,-0.9,-89.6,81.59,89,100,16.11,EC,1706545939
469,bokhan,53.153,103.7714,-27.78,100,77,2.51,RU,1706545940
470,castillos,-34.1667,-53.8333,78.82,51,51,10.25,UY,1706545940
471,jatiroto,-7.8833,111.1167,74.88,94,100,2.28,ID,1706545941
472,rexburg,43.826,-111.7897,35.58,87,100,3.44,US,1706545941
473,la'ie,21.6477,-157.9253,76.44,86,11,1.99,US,1706545941
474,la gi,10.6667,107.7833,73.02,83,50,13.47,VN,1706545942
475,alpena,45.0617,-83.4327,34.11,93,100,8.05,US,1706545942
476,menongue,-14.6585,17.691,79.32,43,47,4.21,AO,1706545942
477,hinton,53.4001,-117.5857,34.86,93,100,4.63,CA,1706545942
478,puerto madryn,-42.7692,-65.0385,80.83,26,0,13.2,AR,1706545714
479,tejen,37.3834,60.5054,41.2,83,100,4.88,TM,1706545942
480,rocha,-34.4833,-54.3333,83.43,43,62,13.06,UY,1706545943
481,slavyanka,42.8633,131.3847,16.79,73,4,6.6,RU,1706545943
482,recreo,-29.2818,-65.061,99.61,20,2,12.8,AR,1706545943
483,zilair,52.2332,57.4392,1.69,100,71,2.64,RU,1706545943
484,rapid city,44.0805,-103.231,58.32,53,0,14.0,US,1706545943
485,las lomitas,-24.7096,-60.593,100.98,19,62,4.7,AR,1706545943
486,tosontsengel,48.7567,98.2839,-14.62,92,80,0.81,MN,1706545944
487,vyyezdnoye,55.3815,43.7864,21.78,92,100,12.1,RU,1706545944
488,uruacu,-14.5247,-49.1408,74.26,86,100,3.53,BR,1706545753
489,pocone,-16.2567,-56.6228,97.41,31,76,4.05,BR,1706545944
490,nassau,40.7507,-73.5829,39.97,78,100,20.71,US,1706545802
491,es castell,39.8795,4.2854,59.68,72,20,11.5,ES,1706545945
492,tual,-5.6667,132.75,83.39,78,40,19.55,ID,1706545945
493,leua,48.2156,18.6071,41.5,79,7,3.11,SK,1706545945
494,conception bay south,47.4999,-52.9981,29.05,90,100,4.61,CA,1706545945
495,bahia de kino,28.8333,-111.9333,63.52,53,100,7.25,MX,1706545945
496,tsiombe,-25.3,45.4833,73.2,80,26,16.51,MG,1706545946
497,callao,-12.0667,-77.15,80.89,65,0,12.66,PE,1706545946
498,east london,-33.0153,27.9116,79.74,78,0,16.11,ZA,1706545946
499,fortuna,40.5982,-124.1573,56.32,92,0,1.99,US,1706545946
500,nhamunda,-2.1861,-56.7131,95.94,38,30,6.02,BR,1706545946
501,tumayr,25.7039,45.868,68.23,39,100,15.01,SA,1706545947
502,sao vicente,-23.9631,-46.3919,89.78,49,0,9.22,BR,1706545947
503,mili,6.0815,171.735,81.59,84,100,16.02,MH,1706545947
504,nadi,-17.8,177.4167,75.2,94,40,4.61,FJ,1706545947
505,nguigmi,14.2495,13.1092,75.87,22,4,6.62,NE,1706545947
506,cidreira,-30.1811,-50.2056,76.44,76,44,6.31,BR,1706545947
507,porto murtinho,-21.6989,-57.8825,101.12,19,66,7.52,BR,1706545947
508,oranjemund,-28.55,16.4333,67.96,73,93,6.4,NA,1706545948
509,sault ste. marie,46.5168,-84.3333,34.36,86,100,3.44,CA,1706545739
510,lethem,3.3803,-59.7968,99.54,28,46,9.95,GY,1706545948
511,bremervorde,53.4833,9.1333,46.38,90,100,6.85,DE,1706545948
512,madalena,41.2162,-8.3345,63.55,76,98,1.72,PT,1706545948
513,turochak,52.2576,87.1224,8.74,98,100,2.42,RU,1706545948
514,puerto armuelles,8.2833,-82.8667,93.18,64,97,3.0,PA,1706545862
515,alakurtti,66.9672,30.3491,33.15,75,61,21.34,RU,1706545949
516,wanning,18.8003,110.3967,69.76,90,60,5.86,CN,1706545949
517,galesong,-5.3166,119.3661,77.02,83,97,5.95,ID,1706545949
518,san patricio,28.017,-97.5169,63.86,48,9,3.56,US,1706545949
519,bodo,67.28,14.405,39.78,78,75,39.12,NO,1706545949
520,saudarkrokur,65.7461,-19.6394,32.61,97,100,6.82,IS,1706545949
521,isola delle femmine,38.1935,13.2488,53.49,54,0,12.66,IT,1706545950
522,dwarka,22.2394,68.9678,72.25,79,7,9.89,IN,1706545950
523,faya-largeau,17.9257,19.1043,70.2,20,0,15.55,TD,1706545950
524,caibarien,22.5206,-79.4669,70.92,65,96,18.5,CU,1706545950
525,tchibanga,-2.85,11.0333,75.56,95,90,3.69,GA,1706545950
526,guapo,-16.8306,-49.5319,82.78,32,2,7.27,BR,1706545950
527,tashtyp,52.7939,89.8983,12.07,97,100,3.18,RU,1706545951
528,dryden,49.7833,-92.7503,26.89,100,100,8.05,CA,1706545951
529,rudnyy,52.9594,63.1206,8.83,100,56,3.15,KZ,1706545951
530,catacaos,-5.2667,-80.6833,89.69,50,100,7.05,PE,1706545951
531,south hedland,-20.4089,118.5983,78.73,83,19,12.66,AU,1706545951
532,chibougamau,49.9168,-74.3659,6.42,72,0,4.61,CA,1706545941
533,rosso,16.4986,-15.8153,91.4,7,63,13.11,SN,1706545952
534,qamdo,31.1667,97.2333,15.03,39,54,3.15,CN,1706545952
535,port augusta,-32.5,137.7667,69.37,63,2,11.83,AU,1706545952
536,xining,36.6167,101.7667,27.73,20,54,1.34,CN,1706545952
537,sharlyk,52.9167,54.75,2.08,99,56,3.13,RU,1706545952
538,andergrove,-21.0833,149.1833,84.65,89,97,6.33,AU,1706545952
539,port douglas,-16.4833,145.4667,82.56,86,92,4.65,AU,1706545952
540,derzhavinsk,51.1,66.3167,-6.54,100,62,4.63,KZ,1706545953
541,san ignacio,17.1561,-89.0714,69.94,83,75,6.91,BZ,1706545953
542,yuzhne,46.6221,31.1013,36.63,73,99,15.01,UA,1706545953
543,ad dilam,23.9915,47.1627,72.01,39,100,10.83,SA,1706545953
544,uttar char fasson,22.2332,90.7132,66.27,55,21,5.01,BD,1706545953
545,harper,4.375,-7.7169,84.02,70,15,9.86,LR,1706545953
546,fu'an,27.0892,119.6453,51.17,96,99,2.21,CN,1706545953
547,kolondieba,11.0882,-6.8926,94.35,8,41,4.23,ML,1706545954
