City_ID,City,Lat,Lng,Max Temp,Humidity,Cloudiness,Wind Speed,Country,Date
0,acarau,-2.8856,-40.12,82.04,80,93,14.81,BR,1706493668
1,ushuaia,-54.8,-68.3,58.66,51,20,12.66,AR,1706493669
2,callao,-12.0667,-77.15,83.71,65,0,10.36,PE,1706493627
3,preobrazheniye,42.9019,133.9064,27.5,48,0,3.0,RU,1706493671
4,dunedin,-45.8742,170.5036,65.25,64,0,8.05,NZ,1706493671
5,port mathurin,-19.6833,63.4167,82.11,80,85,15.28,MU,1706493665
6,kuala kangsar,4.7667,100.9333,84.52,64,4,2.91,MY,1706493672
7,erenhot,43.6475,111.9767,0.97,93,15,7.65,CN,1706493672
8,bethel,41.3712,-73.414,36.36,86,100,3.0,US,1706493672
9,camarinas,43.1311,-9.1817,62.92,70,100,21.34,ES,1706493673
10,atafu village,-8.5421,-172.5159,85.12,71,57,6.62,TK,1706493624
11,blackmans bay,-43.0167,147.3167,75.33,67,86,8.12,AU,1706493673
12,nema,57.5067,50.5011,10.98,98,99,4.23,RU,1706493674
13,lebu,-37.6167,-73.65,56.91,79,0,17.22,CL,1706493674
14,nizhniy kuranakh,58.8353,125.4869,-34.1,98,100,1.45,RU,1706493675
15,st. john's,47.5649,-52.7093,30.67,82,100,14.97,CA,1706493652
16,tiksi,71.6872,128.8694,-10.77,96,100,10.04,RU,1706493676
17,grytviken,-54.2811,-36.5092,40.75,87,22,12.12,GS,1706493557
18,olonkinbyen,70.9221,-8.7187,26.35,68,100,21.3,SJ,1706493678
19,sikasso,10.9167,-7.0,70.83,19,3,4.79,ML,1706493679
20,levuka,50.1834,-105.4011,37.22,88,60,10.29,CA,1706493679
21,ilulissat,69.2167,-51.1,-9.38,49,100,9.22,GL,1706493680
22,mount gambier,-37.8333,140.7667,76.12,47,0,9.64,AU,1706493384
23,rakitnoye,50.8389,35.8515,27.86,96,100,6.08,RU,1706493681
24,colonia,50.9333,6.95,47.82,58,0,10.36,DE,1706493609
25,tchintabaraden,15.8969,5.7985,61.56,24,0,11.7,NE,1706493682
26,okhotsk,59.3833,143.3,-6.68,74,63,11.59,RU,1706493682
27,isafjordur,66.0755,-23.124,20.59,87,98,3.91,IS,1706493683
28,shalqar,47.8333,59.6,8.35,90,75,12.48,KZ,1706493683
29,fortuna,40.5982,-124.1573,62.92,87,0,0.0,US,1706493684
30,comodoro rivadavia,-45.8667,-67.5,64.26,63,0,3.44,AR,1706493407
31,mikuni,36.2171,136.1519,44.51,53,79,2.66,JP,1706493684
32,albany,42.6001,-73.9662,33.64,84,100,5.66,US,1706493601
33,anadyr,64.75,177.4833,-25.01,74,0,8.95,RU,1706493685
34,cabo san lucas,22.8909,-109.9124,74.75,74,2,1.01,MX,1706493388
35,adamstown,-25.066,-130.1015,76.12,77,62,10.07,PN,1706493686
36,cusseta,32.3054,-84.7727,47.46,80,100,12.39,US,1706493687
37,vilyuchinsk,52.9306,158.4028,19.92,79,99,3.18,RU,1706493687
38,margaret river,-33.95,115.0667,67.91,48,0,6.78,AU,1706493441
39,eastham,41.8301,-69.9739,41.02,87,100,17.27,US,1706493646
40,west island,-12.1568,96.8225,82.38,65,10,10.36,CC,1706493689
41,udachny,66.4167,112.4,-18.81,77,97,4.29,RU,1706493690
42,champerico,14.3,-91.9167,80.98,75,23,4.63,GT,1706493690
43,ghadamis,30.1337,9.5007,52.09,71,0,9.4,LY,1706493692
44,tazacorte,28.629,-17.9293,65.37,26,0,5.99,ES,1706493693
45,margate,51.3813,1.3862,46.87,90,99,1.99,GB,1706493581
46,port-aux-francais,-49.35,70.2167,40.64,69,90,32.23,TF,1706493697
47,vila franca do campo,37.7167,-25.4333,55.81,72,100,5.01,PT,1706493698
48,ingeniero guillermo n. juarez,-23.9,-61.85,81.09,32,50,7.49,AR,1706493699
49,talnakh,69.4865,88.3972,9.21,93,100,12.35,RU,1706493700
50,lompoc,34.6391,-120.4579,68.02,61,0,10.36,US,1706493673
51,chonchi,-42.6128,-73.8092,56.41,89,0,2.95,CL,1706493701
52,papatowai,-46.5619,169.4708,65.03,65,25,6.11,NZ,1706493701
53,san luis,-33.295,-66.3356,78.3,35,2,11.95,AR,1706493703
54,iqaluit,63.7506,-68.5145,-33.07,61,20,12.66,CA,1706493703
55,susuman,62.7833,148.1667,-40.02,99,84,1.01,RU,1706493704
56,college,64.8569,-147.8028,-27.45,58,100,0.0,US,1706493602
57,urangan,-25.3,152.9,87.21,83,100,10.0,AU,1706493705
58,arar,30.9753,41.0381,44.62,61,20,4.61,SA,1706493705
59,sisimiut,66.9395,-53.6735,-6.99,98,100,8.97,GL,1706493705
60,avarua,-21.2078,-159.775,82.45,83,97,9.22,CK,1706493707
61,qaqortoq,60.7167,-46.0333,-16.19,67,3,6.22,GL,1706493707
62,sarandi del yi,-33.35,-55.6333,68.38,75,0,11.95,UY,1706493708
63,quesnel,52.9999,-122.5029,46.9,71,0,11.5,CA,1706493709
64,kenora,49.8167,-94.4337,29.37,100,75,8.05,CA,1706493706
65,salinas,36.6777,-121.6555,68.05,63,53,1.12,US,1706493581
66,tannum sands,-23.9504,151.3693,85.89,79,100,8.05,AU,1706493710
67,burao,9.5221,45.5336,65.75,82,100,6.62,SO,1706493710
68,san andres,12.5847,-81.7006,82.42,78,20,13.8,CO,1706493711
69,daru,-9.0763,143.2092,90.1,56,53,6.69,PG,1706493711
70,luganville,-15.5333,167.1667,82.58,75,100,7.45,VU,1706493711
71,arraial do cabo,-22.9661,-42.0278,74.66,91,98,6.33,BR,1706493712
72,kill devil hills,36.0307,-75.676,51.98,83,100,10.36,US,1706493483
73,chui,-33.6971,-53.4616,67.55,87,74,6.93,UY,1706493713
74,enewetak,11.3474,162.3373,79.11,70,97,15.64,MH,1706493714
75,viqueque,-8.8673,126.3658,87.69,64,100,2.84,TL,1706493715
76,piacabucu,-10.4056,-36.4344,79.27,85,100,10.25,BR,1706493716
77,ribeira grande,38.5167,-28.7,59.77,72,100,20.0,PT,1706493716
78,trairi,-3.2778,-39.2689,81.34,80,99,10.71,BR,1706493717
79,puerto natales,-51.7236,-72.4875,49.64,86,100,4.16,CL,1706493686
80,yellowknife,62.456,-114.3525,3.72,85,100,3.44,CA,1706493717
81,mil'kovo,55.6078,37.7956,25.0,100,98,5.19,RU,1706493718
82,holualoa,19.6228,-155.9522,78.78,80,0,8.46,US,1706493597
83,whitehorse,60.7161,-135.0538,36.37,87,100,16.11,CA,1706493376
84,remire-montjoly,4.9167,-52.2667,77.04,94,75,3.44,GF,1706493719
85,newman,37.3138,-121.0208,63.28,80,56,1.36,US,1706493683
86,bilibino,68.0546,166.4372,-21.35,97,99,3.96,RU,1706493720
87,uturoa,-16.7333,-151.4333,82.78,79,74,8.41,PF,1706493720
88,hawaiian paradise park,19.5933,-154.9731,82.9,78,0,4.0,US,1706493721
89,sibolga,1.7427,98.7792,82.4,69,89,1.36,ID,1706493721
90,vorkuta,67.5,64.0,8.04,95,100,10.49,RU,1706493721
91,iskateley,67.6803,53.1512,17.96,94,93,12.84,RU,1706493722
92,makinsk,52.6292,70.4169,-6.56,100,98,4.68,KZ,1706493722
93,edinburgh of the seven seas,-37.0676,-12.3116,61.68,79,93,20.67,SH,1706493722
94,aur,8.1499,171.1687,79.9,82,100,16.44,MH,1706493723
95,port alfred,-33.5906,26.891,67.17,92,36,6.93,ZA,1706493724
96,sao paulo de olivenca,-3.3783,-68.8725,74.73,98,96,2.68,BR,1706493725
97,invercargill,-46.4,168.35,66.02,72,7,8.99,NZ,1706493645
98,ingeniero jacobacci,-41.3427,-69.5448,69.42,22,0,17.07,AR,1706493726
99,stanley,54.868,-1.6985,46.78,85,75,9.22,GB,1706493728
100,bredasdorp,-34.5322,20.0403,66.09,81,100,2.98,ZA,1706493728
101,usogorsk,63.4106,48.6872,19.67,94,95,6.51,RU,1706493728
102,port shepstone,-30.7414,30.455,73.0,89,10,13.6,ZA,1706493729
103,howard springs,-12.497,131.047,82.31,92,100,5.46,AU,1706493729
104,badger,64.8,-147.5333,-27.53,61,100,0.0,US,1706493730
105,papao,-17.75,-149.55,89.28,77,73,4.38,PF,1706493730
106,uliastay,47.7417,96.8444,0.46,69,100,4.85,MN,1706493731
107,thompson,55.7435,-97.8558,12.36,92,100,4.61,CA,1706493732
108,waitangi,-43.9535,-176.5597,66.81,95,100,5.01,NZ,1706493732
109,ancud,-41.8697,-73.8203,52.38,78,0,4.76,CL,1706493733
110,lorengau,-2.0226,147.2712,80.29,85,100,4.32,PG,1706493733
111,santa barbara,34.7333,-120.0343,64.35,48,0,0.0,US,1706493621
112,ritchie,-29.038,24.6028,74.46,47,13,6.6,ZA,1706493735
113,belmonte,-15.8631,-38.8828,77.59,88,100,8.9,BR,1706493734
114,el nido,11.1858,119.3956,80.55,66,21,11.45,PH,1706493736
115,itamaraca,-7.7478,-34.8256,82.45,82,94,6.82,BR,1706493666
116,walla walla,46.0646,-118.343,55.87,89,0,1.99,US,1706493736
117,harlingen,26.1906,-97.6961,57.11,46,16,8.57,US,1706493532
118,anapa,44.8908,37.3239,32.36,100,100,13.42,RU,1706493738
119,kapuskasing,49.4169,-82.4331,26.6,93,100,3.44,CA,1706493739
120,mejit,10.2753,170.8646,78.01,76,100,15.37,MH,1706493740
121,mahuta,-10.8667,39.45,69.71,97,100,1.57,TZ,1706493740
122,san ignacio,17.1561,-89.0714,73.54,100,100,13.8,BZ,1706493741
123,punta arenas,-53.15,-70.9167,57.11,67,0,18.41,CL,1706493685
124,kourou,5.1552,-52.6478,77.05,90,26,6.04,GF,1706493741
125,longyearbyen,78.2186,15.6401,10.24,85,0,14.97,SJ,1706493743
126,przemysl,49.785,22.7673,30.31,92,86,3.11,PL,1706493744
127,marsh harbour,26.5412,-77.0636,74.84,83,0,18.54,BS,1706493744
128,sao francisco,-15.9486,-44.8644,70.21,99,76,5.53,BR,1706493745
129,fortaleza,-3.7227,-38.5247,84.33,74,40,12.66,BR,1706493600
130,kapshagay,43.8833,77.0833,16.54,97,100,3.15,KZ,1706493745
131,krutinka,56.0055,71.5113,-4.97,99,100,4.79,RU,1706493745
132,hamilton,39.1834,-84.5333,39.78,92,100,17.27,US,1706493639
133,enriquillo,17.9,-71.2333,74.73,85,15,6.26,DO,1706493747
134,san antonio,29.4241,-98.4936,60.91,47,0,5.75,US,1706493262
135,viedma,-40.8135,-62.9967,76.33,50,1,21.88,AR,1706493749
136,rongelap,11.1635,166.8941,78.55,74,100,14.36,MH,1706493750
137,hermanus,-34.4187,19.2345,65.8,79,98,4.7,ZA,1706493750
138,jalai nur,49.45,117.7,-19.23,90,8,2.35,CN,1706493752
139,kristiansund,63.1115,7.732,48.85,76,75,28.77,NO,1706493752
140,as sulayyil,20.4607,45.5779,61.05,55,35,9.35,SA,1706493752
141,kalyazin,57.2403,37.8433,15.42,98,99,7.27,RU,1706493753
142,jayapura,-2.5333,140.7,83.59,65,93,3.53,ID,1706493753
143,sarangani,5.4033,125.4636,81.91,74,55,4.41,PH,1706493753
144,san antonio de pale,-1.4014,5.6325,82.06,76,79,6.78,GQ,1706493754
145,alofi,-19.0595,-169.9187,84.09,70,55,9.22,NU,1706493754
146,banda aceh,5.5577,95.3222,80.65,80,26,10.94,ID,1706493754
147,najran,17.4924,44.1277,61.45,61,73,2.35,SA,1706493755
148,kalininsk,51.5,44.4758,7.18,98,100,5.06,RU,1706493755
149,ugoofaaru,5.6667,73.0,80.85,73,23,12.41,MV,1706493756
150,quang ngai,15.1167,108.8,71.6,86,100,4.0,VN,1706493722
151,praia da vitoria,38.7333,-27.0667,57.76,76,40,11.43,PT,1706493757
152,sao jose de mipibu,-6.0747,-35.2378,80.47,78,20,4.61,BR,1706493757
153,phnom penh,11.5625,104.916,78.71,61,6,6.91,KH,1706493608
154,vredendal,-31.6683,18.5012,61.0,81,23,3.58,ZA,1706493758
155,port elizabeth,-33.918,25.5701,68.29,83,0,5.75,ZA,1706493758
156,port augusta,-32.5,137.7667,89.24,30,0,12.66,AU,1706493591
157,kargasok,59.0556,80.8572,0.97,96,100,8.01,RU,1706493759
158,ust-nera,64.5667,143.2,-36.62,100,84,6.35,RU,1706493759
159,kerikeri,-35.2268,173.9474,70.92,81,63,11.74,NZ,1706493760
160,jamestown,42.097,-79.2353,33.39,99,100,9.22,US,1706493553
161,makokou,0.5738,12.8642,73.08,80,22,2.24,GA,1706493760
162,nemuro,43.3236,145.575,32.0,79,73,11.59,JP,1706493761
163,thunder bay,48.4001,-89.3168,24.71,93,0,2.3,CA,1706493761
164,nagqu,31.5,92.0,8.33,45,100,1.54,CN,1706493762
165,wanning,18.8003,110.3967,68.92,92,97,7.31,CN,1706493762
166,ikwiriri,-7.9562,38.9716,75.07,98,100,1.1,TZ,1706493763
167,limbe,4.0242,9.2149,79.74,73,42,0.72,CM,1706493764
168,labrador city,52.9463,-66.9114,-14.89,76,0,0.0,CA,1706493618
169,gadzhiyevo,69.2551,33.3362,32.99,90,100,25.61,RU,1706493765
170,khanty-mansiysk,61.0042,69.0019,-4.9,71,40,0.0,RU,1706493767
171,isangel,-19.55,169.2667,81.19,66,98,8.21,VU,1706493769
172,nova sintra,14.8667,-24.7167,71.11,65,3,10.02,CV,1706493769
173,kayenta,36.7278,-110.2546,41.34,47,94,2.73,US,1706493770
174,midvagur,62.0511,-7.1939,40.03,65,75,29.93,FO,1706493771
175,raahe,64.6833,24.4833,35.69,84,100,23.0,FI,1706493771
176,cajazeiras,-6.8903,-38.5553,78.89,53,85,3.15,BR,1706493771
177,nabire,-3.3667,135.4833,88.61,59,97,3.83,ID,1706493772
178,dwarka,22.2394,68.9678,69.51,78,64,7.18,IN,1706493772
179,stutterheim,-32.5708,27.424,68.32,66,67,4.7,ZA,1706493773
180,maine soroa,13.2114,12.0241,60.96,25,0,10.22,NE,1706493773
181,taunggyi,20.7833,97.0333,57.74,70,43,3.78,MM,1706493773
182,srednebelaya,50.6594,128.0106,-6.83,88,47,8.79,RU,1706493775
183,klyuchi,52.2667,79.1667,-4.72,99,84,5.26,RU,1706493776
184,bayanhongor,46.7167,100.1167,-11.88,70,90,3.04,MN,1706493776
185,saint-pierre,-21.3393,55.4781,74.88,94,20,3.44,RE,1706493776
186,mbanza-ngungu,-5.25,14.8667,69.08,99,100,5.32,CD,1706493777
187,saint joseph,39.7686,-94.8466,39.58,87,0,0.0,US,1706493777
188,kota belud,6.351,116.4305,84.27,56,99,7.67,MY,1706493778
189,macapa,0.0389,-51.0664,80.58,78,0,4.61,BR,1706493576
190,sao gabriel da cachoeira,-0.1303,-67.0892,74.48,99,92,3.36,BR,1706493779
191,hithadhoo,-0.6,73.0833,81.59,72,42,11.1,MV,1706493779
192,el jadid,33.2549,-8.506,59.9,53,81,5.17,MA,1706493779
193,bangassou,4.7413,22.8184,70.27,40,100,2.28,CF,1706493780
194,odder,55.9731,10.153,41.16,77,100,14.18,DK,1706493781
195,porbandar,21.6422,69.6093,66.24,80,92,6.91,IN,1706493705
196,luderitz,-26.6481,15.1594,62.13,89,86,2.15,NA,1706493782
197,pisco,-13.7,-76.2167,77.05,78,0,14.97,PE,1706493783
198,gelibolu,40.4103,26.6708,35.76,83,38,15.57,TR,1706493783
199,paris,48.8534,2.3488,46.18,88,0,4.61,FR,1706493783
200,palmas,-10.2128,-48.3603,76.87,88,75,4.61,BR,1706493702
201,lihue,21.9789,-159.3672,81.36,68,13,18.54,US,1706493784
202,cockburn town,21.4612,-71.1419,80.56,61,40,10.36,TC,1706493785
203,veinticinco de mayo,-35.4323,-60.1727,72.99,54,47,1.99,AR,1706493785
204,shasta lake,40.6804,-122.3708,61.54,82,62,3.22,US,1706493786
205,cabedelo,-6.9811,-34.8339,81.27,80,85,9.17,BR,1706493787
206,wawa,9.9022,4.4192,74.41,27,0,5.1,NG,1706493787
207,westport,41.1415,-73.3579,38.08,85,100,8.01,US,1706493607
208,bejaia,36.7559,5.0843,49.28,81,0,4.61,DZ,1706493787
209,ridder,50.355,83.5133,5.29,84,100,4.0,KZ,1706493789
210,kangding,30.0513,101.9603,38.23,47,0,4.05,CN,1706493789
211,wailua homesteads,22.0669,-159.378,80.74,68,11,5.01,US,1706493790
212,mount isa,-20.7333,139.5,83.97,51,100,4.61,AU,1706493790
213,mzimba,-11.9,33.6,61.54,90,10,4.74,MW,1706493792
214,sretensk,52.2453,117.7093,-18.53,92,52,0.18,RU,1706493792
215,tyukhtet,56.5389,89.3011,-8.9,98,37,5.64,RU,1706493792
216,myeik,12.4333,98.6,80.91,64,44,4.97,MM,1706493793
217,dickinson,29.4608,-95.0513,55.49,67,0,4.61,US,1706493793
218,alice springs,-23.7,133.8833,102.22,11,43,6.91,AU,1706493794
219,saynshand,44.8824,110.1163,-8.77,94,35,2.91,MN,1706493794
220,weno,7.4515,151.8468,81.7,73,81,15.99,FM,1706493794
221,willingen,51.3,8.6167,41.58,66,98,7.45,DE,1706493795
222,rio grande,-32.035,-52.0986,70.45,85,7,9.06,BR,1706493795
223,utrik,11.2278,169.8474,78.33,69,100,13.67,MH,1706493795
224,ola,59.5833,151.2833,2.91,74,6,4.74,RU,1706493292
225,kodiak,57.79,-152.4072,14.47,76,100,12.73,US,1706493797
226,vorgashor,67.5833,63.95,8.62,95,100,11.27,RU,1706493797
227,sandnessjoen,66.0217,12.6316,45.12,93,100,45.41,NO,1706493798
228,byalynichy,53.9983,29.7126,26.62,95,100,5.12,BY,1706493799
229,nar'yan-mar,67.6713,53.087,18.09,94,93,12.86,RU,1706493800
230,sao vicente,-23.9631,-46.3919,76.26,26,20,1.99,BR,1706493639
231,broceni,56.7,22.5333,33.37,91,97,11.32,LV,1706493801
232,sabang,5.8933,95.3214,81.25,79,26,20.24,ID,1706493801
233,bekescsaba,46.6833,21.1,31.91,85,8,5.86,HU,1706493801
234,horasan,40.0458,42.1728,5.83,92,100,0.78,TR,1706493802
235,yemva,62.59,50.8594,15.39,95,98,6.17,RU,1706493802
236,salekhard,66.53,66.6019,-9.56,100,99,3.02,RU,1706493802
237,'ain deheb,34.8422,1.547,49.71,30,76,5.3,DZ,1706493804
238,niafunke,15.9322,-3.9906,65.39,17,61,10.49,ML,1706493804
239,pacific grove,36.6177,-121.9166,69.48,62,0,1.01,US,1706493805
240,luena,-11.7833,19.9167,65.61,94,100,3.67,AO,1706493806
241,kristinestad,62.2743,21.376,37.09,78,99,21.0,FI,1706493806
242,tralee,52.2704,-9.7026,41.47,90,100,2.57,IE,1706493806
243,kuanda,56.3161,116.0806,-27.81,95,45,0.85,RU,1706493807
244,buka,40.8108,69.1986,45.61,82,100,2.82,UZ,1706493807
245,bubaque,11.2833,-15.8333,78.78,66,70,8.79,GW,1706493808
246,blacksburg,37.2296,-80.4139,40.15,79,100,11.5,US,1706493642
247,marion,39.7684,-86.1555,39.04,91,100,17.27,US,1706493809
248,nyasvizh,53.2181,26.6725,30.25,94,100,5.53,BY,1706493809
249,murehwa,-17.6432,31.784,63.37,87,64,0.43,ZW,1706493810
250,lyakhavichy,53.0388,26.2656,30.18,95,100,5.41,BY,1706493811
251,nan,18.8333,100.6667,66.22,94,75,0.0,TH,1706493811
252,arno,60.1167,18.6333,39.78,63,100,18.86,SE,1706493812
253,necochea,-38.5473,-58.7368,69.93,62,99,16.31,AR,1706493813
254,glenwood,41.5425,-87.6023,36.12,85,100,10.36,US,1706493760
255,la junta,37.985,-103.5438,49.84,33,8,5.26,US,1706493619
256,siwa oasis,29.2041,25.5195,54.52,58,31,8.68,EG,1706493816
257,minas de marcona,-15.2119,-75.1103,67.33,75,7,8.28,PE,1706493816
258,la passe,45.5549,-0.8967,50.23,90,100,14.14,FR,1706493817
259,batac city,18.0554,120.5649,78.58,61,20,4.61,PH,1706493817
260,smithers,54.7804,-127.1743,37.72,93,100,5.75,CA,1706493622
261,tura,25.5198,90.2201,59.47,55,1,1.81,IN,1706493819
262,yorkton,51.2167,-102.4677,30.04,86,75,9.22,CA,1706493819
263,cabinda,-5.55,12.2,78.37,90,100,4.7,AO,1706493819
264,gamba,-2.65,10.0,79.57,89,100,3.76,GA,1706493785
265,puerto ayora,-0.7393,-90.3518,78.26,86,82,7.61,EC,1706493820
266,sinabang,2.4803,96.3801,81.07,80,55,1.43,ID,1706493820
267,afaahiti,-17.75,-149.2833,87.67,78,87,4.76,PF,1706493821
268,kurchatov,51.6601,35.6521,27.01,98,96,4.9,RU,1706493821
269,brownfield,33.1812,-102.2744,52.95,36,8,8.5,US,1706493822
270,belyy yar,53.6039,91.3903,-14.91,84,100,0.0,RU,1706493822
271,khark,29.2614,50.3306,63.3,55,99,14.61,IR,1706493822
272,igarka,67.4667,86.5833,1.49,87,100,12.95,RU,1706493823
273,devin,41.7433,24.4,29.28,91,71,5.57,BG,1706493823
274,bikin,46.8161,134.26,9.1,89,100,3.91,RU,1706493824
275,broome,42.2506,-75.833,35.2,97,100,6.93,US,1706493825
276,east london,-33.0153,27.9116,72.41,89,95,8.01,ZA,1706493825
277,zemio,5.0314,25.1361,70.38,35,100,1.54,CF,1706493825
278,island harbour,50.724,-1.2758,52.47,92,100,5.01,GB,1706493827
279,greymouth,-42.4667,171.2,69.57,58,0,11.36,NZ,1706493828
280,metro,-5.1131,105.3067,80.78,77,81,11.88,ID,1706493828
281,nouadhibou,20.931,-17.0347,69.78,37,0,11.5,MR,1706493614
282,selizharovo,56.8519,33.4487,26.62,96,100,7.25,RU,1706493831
283,kruisfontein,-34.0033,24.7314,64.18,71,30,0.72,ZA,1706493831
284,divrigi,39.371,38.1137,26.46,90,100,1.66,TR,1706493832
285,deogarh,21.5333,84.7333,59.45,64,98,1.03,IN,1706493832
286,novyy urgal,51.0736,132.5642,8.04,89,100,2.71,RU,1706493833
287,kunduz,36.75,68.75,48.67,86,100,6.69,AF,1706493833
288,stjordalshalsen,63.4681,10.9262,48.2,61,75,13.8,NO,1706493833
289,basco,20.4487,121.9702,73.76,72,72,20.29,PH,1706493834
290,boromo,11.75,-2.9333,70.21,17,7,6.24,BF,1706493834
291,rumphi,-11.0186,33.8575,66.78,93,100,2.01,MW,1706493835
292,nakhon nayok,14.1667,101.1,79.7,53,62,6.2,TH,1706493836
293,saldanha,-33.0117,17.9442,64.45,90,100,7.61,ZA,1706493836
294,beacon square,28.2086,-82.7554,59.0,78,0,11.99,US,1706493838
295,waupaca,44.358,-89.086,33.89,87,100,6.91,US,1706493838
296,shepetivka,50.1855,27.0637,24.19,94,98,2.04,UA,1706493839
297,bandarbeyla,9.4942,50.8122,76.46,86,93,6.46,SO,1706493839
298,baruun-urt,46.6806,113.2792,-10.68,92,100,2.39,MN,1706493840
299,ambovombe,-25.1667,46.0833,72.09,86,5,13.4,MG,1706493840
300,san francisco de la paz,14.9,-86.2,74.91,90,1,4.07,HN,1706493840
301,phayao,19.25,100.25,64.62,90,100,0.74,TH,1706493841
302,misratah,32.3754,15.0925,58.73,55,68,12.97,LY,1706493841
303,vadso,70.0744,29.7487,34.68,86,100,10.36,NO,1706493841
304,iguape,-24.7081,-47.5553,72.79,92,31,1.72,BR,1706493842
305,kulim,5.365,100.5618,83.73,73,21,4.12,MY,1706493842
306,winston,28.0317,-82.0148,58.55,83,0,8.05,US,1706493765
307,aasiaat,68.7098,-52.8699,-24.07,99,100,7.58,GL,1706493844
308,ribeira brava,32.65,-17.0667,65.03,67,13,6.15,PT,1706493845
309,nieuw amsterdam,5.8833,-55.0833,77.16,84,10,8.57,SR,1706493846
310,tsiombe,-25.3,45.4833,72.7,83,14,12.41,MG,1706493847
311,the pas,53.8251,-101.2541,30.22,86,100,10.36,CA,1706493847
312,walvis bay,-22.9575,14.5053,66.09,94,53,0.0,NA,1706493848
313,amalapuram,16.5833,82.0167,66.56,81,40,2.93,IN,1706493848
314,lithgow,-33.4833,150.15,80.65,31,0,7.14,AU,1706493726
315,medina,24.4686,39.6142,59.43,26,0,5.75,SA,1706493805
316,nellore,14.4333,79.9667,71.98,78,100,3.6,IN,1706493849
317,miyazu,35.5333,135.1833,37.6,57,66,3.56,JP,1706493849
318,soio,-6.1349,12.3689,78.76,87,100,4.83,AO,1706493850
319,fort st. john,56.2499,-120.8529,40.89,70,40,8.05,CA,1706493715
320,berdigestyakh,62.0989,126.6992,-34.28,98,100,3.4,RU,1706493850
321,keflavik,64.0049,-22.5624,33.71,64,20,33.38,IS,1706493851
322,bengkulu,-3.8004,102.2655,81.34,77,100,2.19,ID,1706493851
323,gazojak,41.1875,61.4036,34.05,82,99,12.12,TM,1706493852
324,flagstaff,35.1981,-111.6513,41.38,60,0,8.05,US,1706493618
325,saint marys,30.7305,-81.5465,58.01,65,0,9.22,US,1706493734
326,xique xique,-10.8217,-42.7311,72.99,85,100,4.09,BR,1706493854
327,tolanaro,-25.0319,46.9987,73.47,88,75,8.05,MG,1706493855
328,kingston,17.997,-76.7936,79.75,83,75,5.75,JM,1706493856
329,katsuura,35.1333,140.3,49.35,49,1,12.41,JP,1706493857
330,khandyga,62.6667,135.6,-39.48,98,98,0.49,RU,1706493858
331,gounou gaya,9.6294,15.5132,67.71,21,8,5.7,TD,1706493858
332,antsiranana,-12.2787,49.2917,76.35,85,100,7.2,MG,1706493859
333,warrnambool,-38.3833,142.4833,68.95,71,0,12.26,AU,1706493733
334,flores,16.9226,-89.8994,70.65,97,45,8.05,GT,1706493861
335,yuzhno-kurilsk,44.0306,145.8556,32.38,93,89,13.38,RU,1706493861
336,tazovsky,67.4667,78.7,-1.23,97,100,10.02,RU,1706493861
337,port saint john's,-31.6229,29.5448,74.23,85,12,8.66,ZA,1706493862
338,azacualpa,15.3433,-88.5514,74.05,96,3,1.34,HN,1706493864
339,shenjiamen,29.9576,122.298,48.47,65,100,8.25,CN,1706493865
340,guerrero negro,27.9769,-114.0611,67.68,42,96,8.55,MX,1706493867
341,diepholz,52.6,8.3667,42.19,74,100,8.28,DE,1706493868
342,kasongo-lunda,-6.4667,16.8167,72.3,94,100,0.76,CD,1706493869
343,isla vista,34.4133,-119.861,69.82,56,0,0.0,US,1706493870
344,broken hill,-31.95,141.4333,90.77,17,0,6.64,AU,1706493870
345,novo aripuana,-5.1206,-60.3797,73.89,99,100,3.71,BR,1706493871
346,cambria,35.5641,-121.0808,66.16,67,10,1.99,US,1706493758
347,alamogordo,32.8995,-105.9603,50.79,56,20,12.66,US,1706493872
348,howrah,22.5892,88.3103,55.4,88,20,0.0,IN,1706493649
349,fort bragg,35.139,-79.006,53.44,48,0,18.41,US,1706493873
350,karatuzskoye,53.6072,92.8667,-11.61,99,100,1.01,RU,1706493874
351,plettenberg bay,-34.0527,23.3716,66.25,80,88,2.39,ZA,1706493876
352,zapata,26.9073,-99.2714,60.91,36,0,4.61,US,1706493876
353,shubarshi,48.5872,57.1869,8.2,91,88,8.81,KZ,1706493877
354,ballina,-28.8667,153.5667,81.79,90,100,12.19,AU,1706493845
355,happy valley-goose bay,53.3168,-60.3315,-7.29,54,0,6.91,CA,1706493880
356,solleftea,63.1667,17.2667,31.86,82,85,14.0,SE,1706493881
357,khandud,36.9513,72.318,26.01,96,100,3.15,AF,1706493881
358,constantia,44.1833,28.65,32.7,81,98,19.6,RO,1706493846
359,bodaybo,57.8506,114.1933,-35.75,99,88,1.34,RU,1706493882
360,port douglas,-16.4833,145.4667,86.36,74,100,7.96,AU,1706493882
361,kingaroy,-26.5333,151.8333,83.21,72,100,7.2,AU,1706493883
362,el bauga,18.262,33.9081,58.51,33,100,12.33,SD,1706493884
363,dudinka,69.4058,86.1778,9.63,92,100,19.69,RU,1706493884
364,serowe,-22.3833,26.7167,69.24,64,13,4.94,BW,1706493886
365,saipan,15.1355,145.701,83.1,57,75,20.71,MP,1706493886
366,new norfolk,-42.7826,147.0587,76.5,67,98,7.83,AU,1706493889
367,dubna,56.7333,37.1667,11.23,98,75,4.94,RU,1706493889
368,pariaman,-0.619,100.12,84.25,69,54,1.68,ID,1706493891
369,chibougamau,49.9168,-74.3659,15.42,86,100,3.44,CA,1706493742
370,mindelo,16.8901,-24.9804,71.15,78,40,6.91,CV,1706493892
371,portland,45.5234,-122.6762,61.29,89,100,7.0,US,1706493762
372,porto novo,6.4965,2.6036,80.42,61,16,3.53,BJ,1706493894
373,san giovanni in fiore,39.2633,16.6996,35.06,83,10,6.26,IT,1706493894
374,tucuma,-0.1833,-50.05,77.23,91,90,4.59,BR,1706493895
375,rexburg,43.826,-111.7897,38.53,93,100,3.44,US,1706493875
376,dilijan,40.741,44.8636,15.13,83,72,6.4,AM,1706493895
377,diego de almagro,-26.3667,-70.05,69.67,52,0,1.28,CL,1706493896
378,lodja,-3.4833,23.4333,72.19,84,100,1.88,CD,1706493897
379,bodo,67.28,14.405,48.24,75,75,40.29,NO,1706493897
380,touros,-5.1989,-35.4608,81.09,76,55,11.27,BR,1706493885
381,georgetown,5.4112,100.3354,84.13,68,20,6.91,MY,1706493766
382,ilhabela,-23.7781,-45.3581,74.48,91,25,3.87,BR,1706493660
383,dauphin,51.1494,-100.0502,28.54,86,40,9.22,CA,1706493900
384,khuzdar,27.7384,66.6434,52.32,88,100,2.84,PK,1706493900
385,barcelos,41.5388,-8.6151,59.14,74,100,5.39,PT,1706493900
386,impfondo,1.6381,18.0667,70.99,40,80,2.01,CG,1706493901
387,dhidhdhoo,6.8833,73.1,80.51,66,30,7.52,MV,1706493649
388,mossel bay,-34.1831,22.146,66.76,82,36,2.93,ZA,1706493723
389,arteche,12.2645,125.4048,79.18,73,100,17.98,PH,1706493912
390,copala,16.65,-98.9833,77.63,73,44,2.53,MX,1706493919
391,harper,4.375,-7.7169,79.34,84,4,5.77,LR,1706493919
392,lata,40.1629,-8.3327,49.08,78,100,4.81,PT,1706493920
393,port lincoln,-34.7333,135.8667,72.36,56,0,12.55,AU,1706493923
394,bhadrakh,21.0528,86.52,62.71,46,92,0.78,IN,1706493810
395,puntarenas,9.9763,-84.8384,81.12,70,93,4.61,CR,1706493928
396,caldwell,43.6629,-116.6874,46.54,95,0,4.61,US,1706493697
397,antigonish,45.6169,-61.9986,30.15,91,100,1.72,CA,1706493929
398,khash,28.2211,61.2158,48.24,61,100,3.29,IR,1706493931
399,bunia,1.5667,30.25,70.48,49,100,2.1,CD,1706493931
400,ar raqqah,35.95,39.0167,46.0,78,100,10.02,SY,1706493932
401,saint-francois,46.4154,3.9054,40.64,94,0,2.3,FR,1706493933
402,twentynine palms,34.1356,-116.0542,65.86,41,100,3.15,US,1706493934
403,staritsa,56.5075,34.9354,12.58,95,99,7.07,RU,1706493934
404,tado,5.266,-76.5649,76.5,97,88,1.9,CO,1706493935
405,winnemucca,40.973,-117.7357,50.67,65,2,4.88,US,1706493936
406,kavaratti,10.5669,72.642,81.03,71,28,8.93,IN,1706493937
407,san rafael,-34.6177,-68.3301,81.25,39,61,5.53,AR,1706493937
408,los osos,35.3111,-120.8324,68.23,67,0,4.61,US,1706493938
409,vernon,50.2581,-119.2691,44.29,93,100,1.14,CA,1706493501
410,gobabis,-22.45,18.9667,73.29,57,100,10.87,NA,1706493939
411,wad rawah,15.1603,33.1397,64.78,25,97,12.97,SD,1706493939
412,graaff-reinet,-32.2522,24.5308,65.91,68,3,3.29,ZA,1706493940
413,kosonsoy,41.2561,71.5508,37.96,56,100,2.3,UZ,1706493940
414,sitka,57.0531,-135.33,53.49,58,100,24.16,US,1706493940
415,kabare,-2.4683,28.8242,61.63,94,98,0.56,CD,1706493943
416,itoman,26.1247,127.6694,70.57,47,20,12.66,JP,1706493944
417,saint-philippe,-21.3585,55.7679,74.79,86,54,5.19,RE,1706493945
418,buta,2.7858,24.73,69.15,50,98,1.43,CD,1706493946
419,montepuez,-13.1256,38.9997,70.29,96,100,3.27,MZ,1706493947
420,trinity beach,-16.7888,145.6968,94.01,74,40,10.36,AU,1706493948
421,noosa heads,-26.3833,153.15,87.12,85,100,12.93,AU,1706493907
422,amga,60.8953,131.9608,-34.29,98,100,0.89,RU,1706493948
423,sos'va,59.1766,61.8558,-11.94,100,99,3.0,RU,1706493949
424,bestwig,51.3667,8.4,44.94,58,97,8.25,DE,1706493949
425,kovdor,67.5662,30.4758,32.22,96,100,18.5,RU,1706493950
426,guaruja,-23.9931,-46.2564,71.89,26,4,1.99,BR,1706493658
427,flin flon,54.7682,-101.865,28.04,90,100,7.29,CA,1706493951
428,umirim,-3.6772,-39.3503,78.04,87,97,3.83,BR,1706493952
429,haiku-pauwela,20.9219,-156.3051,78.17,71,40,24.16,US,1706493953
430,kidal,18.4411,1.4078,61.66,19,17,10.63,ML,1706493953
431,shchastya,48.7396,39.2323,26.04,78,82,7.7,UA,1706493954
432,sorong,-0.8833,131.25,82.58,78,52,4.9,ID,1706493954
433,malango,-2.9627,119.9001,81.77,62,99,1.81,ID,1706493955
434,korsakov,46.6328,142.7813,22.84,84,100,5.37,RU,1706493956
435,puerto deseado,-47.7503,-65.8938,62.11,71,100,16.28,AR,1706493956
436,pembroke,45.8168,-77.1162,32.18,78,100,7.02,CA,1706493745
437,socorro,31.6546,-106.3033,58.17,36,40,4.61,US,1706493958
438,draguignan,43.5333,6.4667,47.01,77,69,1.14,FR,1706493958
439,dampit,-8.2116,112.7493,81.81,73,97,1.54,ID,1706493958
440,san patricio,28.017,-97.5169,57.83,52,0,5.91,US,1706493959
441,bernay,49.1667,0.6667,43.07,92,100,8.25,FR,1706493960
442,qarah bagh,34.9402,61.7759,40.26,86,78,7.45,AF,1706493960
443,suizhou,31.7111,113.3631,45.25,49,100,6.17,CN,1706493960
444,mahibadhoo,3.7833,72.9667,82.0,71,43,14.52,MV,1706493962
445,tlapa de comonfort,17.55,-98.55,68.22,48,10,0.43,MX,1706493962
446,ocean shores,46.9737,-124.1563,59.02,97,100,11.5,US,1706493963
447,copiapo,-27.3667,-70.3333,62.29,64,0,2.68,CL,1706493963
448,waingapu,-9.6567,120.2641,86.11,64,100,5.39,ID,1706493964
449,seryshevo,51.0933,128.3786,-4.09,90,96,9.4,RU,1706493964
450,kerouane,9.2667,-9.0167,70.05,24,24,3.15,GN,1706493967
451,tema,5.667,-0.0166,81.01,83,5,3.44,GH,1706493967
452,sosnogorsk,63.6023,53.8817,13.53,96,100,5.01,RU,1706493968
453,ati,13.2154,18.3353,62.44,22,43,10.09,TD,1706493968
454,san juan nepomuceno,9.9516,-75.082,76.78,71,12,4.21,CO,1706493968
455,ulsteinvik,62.3432,5.8487,47.3,85,100,23.0,NO,1706493969
456,shingu,33.7333,135.9833,50.92,46,0,0.4,JP,1706493970
457,nogliki,51.8333,143.1667,8.35,93,95,5.99,RU,1706493972
458,geiro,-6.15,36.8667,62.98,95,97,1.14,TZ,1706493972
459,petauke,-14.2426,31.3253,62.22,78,11,4.36,ZM,1706493973
460,nikolayevsk-on-amure,53.1406,140.73,8.28,81,91,1.9,RU,1706493974
461,bhamo,24.2667,97.2333,62.55,57,67,1.43,MM,1706493974
462,dongcun,36.7767,121.1597,38.95,57,6,7.56,CN,1706493975
463,freetown,8.484,-13.2299,80.31,89,31,6.91,SL,1706493976
464,maintirano,-18.0667,44.0167,77.25,76,0,2.42,MG,1706493976
465,valparaiso,-33.0393,-71.6273,67.48,74,75,4.61,CL,1706493976
466,saskatoon,52.1168,-106.6345,30.18,86,75,9.22,CA,1706493782
467,vikhorevka,56.1201,101.1636,-17.01,99,6,1.95,RU,1706493977
468,tarko-sale,64.9225,77.785,-5.64,96,98,9.22,RU,1706493978
469,umm kaddadah,13.6017,26.6876,57.92,32,37,12.93,SD,1706493978
470,ha'il,27.5219,41.6907,46.42,66,0,2.3,SA,1706493979
471,koungheul,13.9833,-14.8,71.15,14,43,9.73,SN,1706493980
472,fenoarivo atsinanana,-17.3667,49.4167,74.89,92,61,7.65,MG,1706493980
473,banyo,6.75,11.8167,66.63,33,50,3.02,CM,1706493981
474,freeport,40.6576,-73.5832,38.52,90,100,13.8,US,1706493951
475,hecun,36.5333,114.1111,36.61,44,17,4.59,CN,1706493982
476,mili,6.0815,171.735,81.45,83,100,17.9,MH,1706493983
477,santana,-0.0583,-51.1817,80.78,83,0,3.44,BR,1706493984
478,yokadouma,3.5167,15.05,67.66,40,24,2.21,CM,1706493984
479,carutapera,-1.195,-46.02,78.8,88,99,5.68,BR,1706493987
480,polyarnyy,69.1989,33.4478,32.95,90,100,25.77,RU,1706493987
481,lesnoy,57.6198,63.0784,-4.76,100,69,3.91,RU,1706493988
482,khorixas,-20.3667,14.9667,73.29,47,100,8.79,NA,1706493988
483,taoudenni,22.6783,-3.9836,65.79,17,0,10.16,ML,1706493989
484,takoradi,4.8845,-1.7554,78.39,84,6,4.05,GH,1706493990
485,horta,38.5333,-28.6333,59.02,72,100,20.0,PT,1706493991
486,leh,34.1667,77.5833,18.1,88,98,3.74,IN,1706493991
487,luis correia,-2.8792,-41.6669,80.69,86,90,11.25,BR,1706493993
488,ishigaki,24.3448,124.1572,68.13,68,75,11.5,JP,1706493993
489,lesparre-medoc,45.3,-0.9333,49.03,91,100,11.16,FR,1706493994
490,vila do maio,15.1333,-23.2167,72.39,70,2,13.73,CV,1706493994
491,denison,33.7557,-96.5367,52.18,67,0,4.61,US,1706493939
492,rakops,-21.0167,24.3333,79.25,48,68,6.38,BW,1706493997
493,muli,2.9167,73.5667,81.77,77,39,14.85,MV,1706493998
494,ghat,24.9647,10.1728,51.87,53,0,4.74,LY,1706493999
495,regina,50.4501,-104.6178,37.51,89,40,8.05,CA,1706493999
496,birao,10.2849,22.7882,63.46,20,44,6.42,CF,1706494001
497,sampacho,-33.3839,-64.7221,72.43,41,1,14.61,AR,1706494003
498,sao jose da coroa grande,-8.8978,-35.1478,78.87,83,91,7.9,BR,1706494004
499,ketchikan,55.3422,-131.6461,50.34,87,100,12.66,US,1706494004
500,selfoss,63.9331,-20.9971,29.84,53,72,18.3,IS,1706494004
501,tres arroyos,-38.3739,-60.2798,75.96,30,86,12.75,AR,1706494005
502,nochistlan de mejia,21.3667,-102.85,62.8,24,93,2.15,MX,1706494006
503,adelaide,-34.9333,138.6,89.04,48,0,16.11,AU,1706493741
504,zhezqazghan,47.7833,67.7667,3.78,85,20,20.13,KZ,1706494007
505,san juan de miraflores,-12.1629,-76.9635,82.17,61,67,6.26,PE,1706494008
506,huazhou,21.6333,110.5833,60.39,73,97,6.38,CN,1706494008
507,ormara,25.2088,64.6357,71.65,80,13,5.75,PK,1706494016
508,skiathos,39.1623,23.4909,47.79,69,100,15.48,GR,1706494017
509,crucecita,-28.95,-58.9833,70.05,69,6,6.11,AR,1706494017
510,bandon,51.7469,-8.7425,40.59,95,100,12.1,IE,1706494018
511,shimoda,34.6667,138.95,48.11,56,33,9.42,JP,1706494018
512,yuanping,38.7153,112.7575,21.87,50,1,1.7,CN,1706494018
513,eirunepe,-6.6603,-69.8736,74.14,98,100,1.52,BR,1706494019
514,coquimbo,-29.9533,-71.3436,64.09,89,20,3.67,CL,1706494006
515,mandalgovi,45.7625,106.2708,-8.77,98,25,0.76,MN,1706494019
516,correntina,-13.3433,-44.6367,69.55,98,100,3.02,BR,1706494020
517,ain leuh,33.2921,-5.3384,48.7,41,100,3.38,MA,1706494020
518,rikaze,29.25,88.8833,23.09,51,0,3.0,CN,1706494020
519,muravlenko,63.7898,74.523,-10.07,99,97,4.97,RU,1706494021
520,cannonvale,-20.2833,148.7,90.79,69,100,10.11,AU,1706494021
521,kenai,60.5544,-151.2583,4.08,70,75,0.0,US,1706494022
522,ust'-kulom,61.6864,53.6902,13.82,96,100,5.06,RU,1706494023
523,acapulco de juarez,16.8634,-99.8901,80.42,69,40,6.91,MX,1706493884
524,ixtapa,20.7,-105.2,76.23,88,40,3.44,MX,1706494023
525,brookings,44.3114,-96.7984,33.39,93,0,8.05,US,1706494024
526,srivardhan,18.0333,73.0167,71.47,59,99,3.94,IN,1706494024
527,kantharalak,14.6406,104.6499,72.99,60,40,4.85,TH,1706494024
528,puerto baquerizo moreno,-0.9,-89.6,77.63,88,99,10.13,EC,1706494025
529,inirida,3.8653,-67.9239,79.2,74,30,2.06,CO,1706494025
530,yinchuan,38.4681,106.2731,23.29,27,2,5.06,CN,1706494028
531,comayagua,14.45,-87.6333,68.16,96,6,6.17,HN,1706494029
532,antofagasta,-23.65,-70.4,70.88,84,59,4.92,CL,1706493963
533,hadibu,12.65,54.0333,75.7,78,91,6.31,YE,1706494030
534,semirom,31.4167,51.5667,25.25,83,10,3.06,IR,1706494031
535,kintinku,-5.8833,35.2333,68.14,96,99,1.14,TZ,1706494032
536,campbellton,48.0075,-66.6727,28.42,97,100,2.01,CA,1706494032
537,kyren,51.6828,102.1408,-3.46,92,92,0.78,RU,1706494033
538,badiyah,22.45,58.8,66.87,75,23,5.41,OM,1706494034
539,fale old settlement,-9.3852,-171.2468,85.19,69,25,4.03,TK,1706494038
540,emerald,-23.5333,148.1667,92.34,68,57,8.1,AU,1706494038
541,ujae,8.9322,165.7642,79.38,70,89,14.85,MH,1706494038
542,nuea khlong,8.0714,98.9993,82.42,64,2,12.62,TH,1706494039
543,aoulef,26.9667,1.0833,62.42,20,0,17.43,DZ,1706494040
544,crane,31.3974,-102.3501,55.62,36,15,10.58,US,1706494041
545,carnarvon,-24.8667,113.6333,79.11,60,0,17.54,AU,1706494041
546,castillos,-34.1667,-53.8333,67.1,85,85,6.51,UY,1706494041
547,weligama,5.9667,80.4167,76.35,89,70,4.12,LK,1706494042
548,mugia,43.1041,-9.2179,62.91,71,100,22.3,ES,1706494043
549,bikenibeu village,1.3673,173.1241,83.34,67,69,14.34,KI,1706494043
550,manaure,11.7751,-72.4445,76.96,84,56,16.08,CO,1706494044
551,petropavlovsk-kamchatsky,53.0452,158.6483,18.45,82,0,8.95,RU,1706493883
552,tobelo,1.7284,128.0095,82.62,77,23,2.66,ID,1706494045
553,bad tolz,47.7611,11.5589,27.59,48,3,4.41,DE,1706494045
554,tofol,5.3248,163.0078,85.78,66,75,12.66,FM,1706494046
555,bechar,31.6167,-2.2167,53.22,23,8,4.72,DZ,1706494046
556,kununurra,-15.7667,128.7333,87.78,70,100,6.91,AU,1706494047
557,vuokatti,64.146,28.2697,33.66,89,100,12.3,FI,1706494049
558,ariquemes,-9.9133,-63.0408,73.53,99,87,3.09,BR,1706494049
559,myskhako,44.6714,37.7433,38.59,86,96,10.54,RU,1706494050
560,louga,58.7372,29.8453,33.98,92,100,10.85,RU,1706494051
561,aylmer,42.7668,-80.983,34.5,84,100,11.21,CA,1706493840
562,twon-brass,4.3151,6.2418,79.86,79,5,9.08,NG,1706494052
563,magadan,59.5667,150.8,3.04,71,7,3.4,RU,1706493801
564,la ciotat,43.1748,5.6045,53.82,65,97,8.52,FR,1706494053
565,darwin,-12.4611,130.8418,82.38,78,75,4.61,AU,1706494053
566,zouerate,22.7187,-12.4521,61.52,19,0,7.85,MR,1706494054
567,massaguet,12.4755,15.4365,66.38,18,28,9.15,TD,1706494054
568,laojunmiao,39.8333,97.7333,20.59,25,41,1.7,CN,1706494054
569,whangarei,-35.7317,174.3239,72.07,49,41,10.96,NZ,1706493857
570,pangoa,-12.1167,-73.0,70.39,99,49,2.17,PE,1706494057
571,musafir-khana,26.3667,81.8,49.44,54,41,3.76,IN,1706494057
572,murzuq,25.9155,13.9184,50.92,68,0,10.07,LY,1706494059
573,sao miguel,-5.4667,-35.3667,77.77,77,61,11.3,BR,1706494059
574,burela de cabo,43.65,-7.4,54.55,71,100,7.49,ES,1706493820
575,sao joao da barra,-21.6403,-41.0511,74.98,94,100,0.87,BR,1706494060
576,mkushi,-13.6202,29.3939,61.61,94,100,3.74,ZM,1706494061
577,arafat,21.3594,39.9664,65.93,62,100,5.66,SA,1706494062
578,qiancheng,27.185,109.7654,41.43,92,99,0.43,CN,1706494062
579,manadhoo,5.7667,73.3833,80.8,72,27,12.12,MV,1706494063
580,conduaga,8.862,117.4893,82.98,62,85,5.82,PH,1706494063
581,yerofey pavlovich,53.9667,121.9667,-15.59,79,100,2.64,RU,1706494064
582,kapa'a,22.0752,-159.319,82.09,69,20,23.02,US,1706494064
583,yaren,-0.5472,166.916,83.79,75,80,15.79,NR,1706494065
584,hanzhong,33.0728,107.0303,42.42,65,87,1.05,CN,1706494065
585,al jawf,29.5,38.75,47.14,56,42,6.78,SA,1706494066
586,san antonio oeste,-40.7319,-64.9477,79.3,49,59,25.39,AR,1706494066
587,egilsstadir,65.2653,-14.3948,22.37,75,6,10.96,IS,1706494068
588,astrakhan,46.3497,48.0408,21.07,79,0,7.0,RU,1706493816
589,kolonia town,6.964,158.206,87.91,70,75,11.5,FM,1706494069
590,tamiahua,21.2667,-97.45,64.18,71,48,6.58,MX,1706494069
